nombre;latitud;longitud;
Institucion educativa Isabel Linch de Rubio;-6.197800144;-77.85846326;
COLISEO MULTIUSOS SANTO TOMAS;-6.213426166;-77.87065339;
PEDRO CASTRO ALVA;-6.21451;-77.864965;
P.S Pedro Castro Alva;-6.2145312;-77.8654251;
COLEGIO JESUS MARIA;-6.216156607;-77.87031006;
Dental Jade Sonrisas JS;-6.21712133;-77.86520443;
SEÑOR DE LOS MILAGROS;-6.21856333;-77.87343;
C.S 09 DE ENERO;-6.218887033;-77.87374329;
"CONSULTORIO DE ATENCIÓN INTEGRAL ""REFLEJOS""";-6.22172661;-77.87326633;
"""SALUDENT"" - Atención Integral y Odontológica";-6.2218226;-77.871936;
CENTRO DE MEDICINA INTEGRAL Y NATURAL SALUD Y VIDA;-6.225749;-77.867544;
SANTA FE;-6.22626393;-77.86750382;
LABORATORIO CLÍNICO SAN LUIS;-6.22641398;-77.87417456;
CATS Chachapoyas;-6.22668841;-77.86690495;
LABORATORIO DENTAL CONFI DENT;-6.22719477;-77.86987559;
CONFI-DENT;-6.22726962;-77.86989706;
Asiri Sumaq;-6.22730968;-77.87107847;
CHACHADENT SAC;-6.22784029;-77.86826215;
9 DE ENERO;-6.22784085;-77.87932917;
SAMU AMAZONAS;-6.227855;-77.870565;
CRIZAL ÓPTICA;-6.2283519;-77.8710449;
CENTRO ODONTOLOGICO LORENTOOTH;-6.22867982;-77.86403711;
Consultorio odontológico DENTALPOINT;-6.2287025;-77.8673314;
Odontolinares;-6.22885084;-77.8707727;
Laboratorio Referencial de Salud Pública;-6.2289975;-77.86739311;
CENTRO MEDICO NEILL M. ROMAN ROBLES;-6.229026;-77.8750611;
CONSULTORIO ODONTOLOGICO VIVIDENT;-6.22904731;-77.87309899;
Emergencias en Cardiología;-6.22909348;-77.86746822;
Colegio San Juan De Libertad;-6.2293898;-77.8678429;
Coliseo Florentino Ordinola;-6.2295148;-77.8657029;
Ist. Peru Japon;-6.2295148;-77.8657029;
POLICLINICO PNP CHACHAPOYAS;-6.22952833;-77.86468833;
CLINICA VIRGEN ASUNTA S.A.C.;-6.229565;-77.869165;
Ópticas del Norte;-6.2295734;-77.8718628;
OPTICAS DEL NORTE;-6.2295771;-77.87161503;
CENTRO DE ATENCIÓN INTEGRAL DR. SAGASTEGUI E.I.R.L;-6.229599;-77.87187;
POLICLINICO POLICIAL CHACHAPOYAS;-6.22961076;-77.86466799;
LABORATORIO DENTAL ROJAS;-6.22963677;-77.86773378;
Dental Jade Sonrisas;-6.22965342;-77.87026308;
SDENT;-6.2296601;-77.863419;
SIADENT;-6.22969608;-77.86787055;
Consultorios Médicos Montoya;-6.22970942;-77.86571673;
Óptica Universal JW;-6.229711;-77.86873732;
SERVICIOS GENERALES OMEGA;-6.22971475;-77.86879591;
SONRIEME CENTRO ODONTOLOGICO;-6.22972174;-77.87069441;
CONSULTORIO DENTAL DEL PUEBLO;-6.22973113;-77.86980516;
Servicios Médicos Amazonas;-6.2297325;-77.8699246;
CENTRO ODONTOLOGICO SONRIEME E.I.R.L;-6.2297677;-77.8706368;
ODONTO ESTILO;-6.2297697;-77.8682924;
Laboratorio Clínico  BUSTAMANTE;-6.2298134;-77.87462435;
Óptica Latina - Amazonas;-6.2298995;-77.8711008;
ODONTOSALUD;-6.22990406;-77.86698274;
Consultorio Médico Amazonas;-6.22990406;-77.87527881;
Campo Deportivo Sintetico Alian Arenas;-6.2299351;-77.8716744;
Coliseo 16 De Octubre;-6.2299351;-77.8716745;
CERTIFICADOS MEDICOS MI BREVETE;-6.22996651;-77.87198837;
CENTRO MEDICO VIRGEN DEL CARMEN;-6.2300316;-77.87178873;
CLINICA SAN FRANCISCO;-6.23005086;-77.86747828;
HOSPITAL HIGOS URCO;-6.23006667;-77.87277833;
CENTRO ODONTOLOGICO PERFECT SMILE;-6.23015067;-77.87098635;
CENTRO DE ESPECIALIDADES FISIOTERAPEUTICAS Y SERVICIOS MEDICOS INTEGRALES CEFIR;-6.2301547;-77.8708478;
CENTRO MEDICO AMAZONAS EIRL;-6.2301547;-77.8708478;
OYARCE CONSULTORIO ODONTOLOGICO;-6.2301547;-77.8708478;
"CENTRO MEDICO ""PERU JAPON""";-6.2301547;-77.8708478;
SERVICIOS ODONTOLÓGICOS TAFUR;-6.2301547;-77.8708478;
AYLLU SACHAPUYOS;-6.2301547;-77.8655;
CONSULTORIO ODONTOLÓGICO VIRGEN ASUNTA;-6.2301547;-77.8708478;
GASTROCAMPOS;-6.2301547;-77.8708478;
LÒPEZ CONSULTORIO ODONTOLÒGICO;-6.2301547;-77.8708478;
DIAGNOSTIC LAB;-6.2301547;-77.8708478;
PERFECT SMILE;-6.2301547;-77.8708478;
CENTRO MEDICO AMISTAD;-6.2301547;-77.8708478;
CONSULTORIO ODONTOLÓGICO TORRES;-6.2301547;-77.8708478;
CONSULTORIO ODONTOLOGICO CONCIENCIA;-6.2301547;-77.8708478;
SERVICIOS GENERALES OMEGA;-6.2301547;-77.8708478;
LABORATORIO CLINICO BIOSALUD;-6.2301547;-77.8708478;
Colegio Virgen Asunta;-6.2301849;-77.8722147;
PERUMEDIC;-6.23020719;-77.86661286;
Consultorio Odontológico Amazonas;-6.23064531;-77.87170611;
CONSULTORIO MEDICO BIENESTAR;-6.2307253;-77.86619417;
Consultorio Odontológico LA CARIES;-6.2307854;-77.8728476;
HOSPITAL REGIONAL VIRGEN DE FATIMA;-6.23079333;-77.866165;
Nutrimed Perú;-6.23153054;-77.86744139;
LABORATORIO REFERENCIAL REGIONAL DE SALUD PUBLICA AMAZONAS;-6.23178833;-77.86577833;
HIGOS URCO;-6.23299;-77.85874333;
OdontiSalud;-6.23302104;-77.86577038;
CONSULTORIO PSICOLOGICO AMAYA;-6.23345565;-77.87121794;
Universidad Untrm;-6.2335356;-77.8553538;
"CONSULTORIO ODONTOLOGICO ""PLUS DENT""";-6.23483949;-77.86878518;
VIRGEN DE ASUNTA;-6.23676333;-77.86676;
ODONTOLUZ;-6.23714054;-77.8668674;
Centro Salud Mental;-6.2435558;-77.8670226;
EL MOLINO;-6.24781167;-77.888695;
TAQUIA;-6.25464833;-77.83386833;
SAN ISIDRO DE UTCUBAMBA;-6.282965;-77.93609833;
ASUNCION GONCHA;-6.03254552;-77.71035277;
GOLLON;-6.73397167;-77.94125833;
SAULLAMUR;-6.81352;-77.93935833;
BALZAS;-6.835975;-78.01989167;
CHETO;-6.25583338;-77.70094348;
CHILIQUIN;-6.0786751;-77.73728409;
SENGACHE;-6.09743575;-77.80881486;
VITUYA;-6.1035609;-77.79418762;
CUELCHO;-6.14127159;-77.75449921;
CANAAN;-6.516667;-77.4;
CHUMBOL;-6.92799667;-77.94049;
COCHABAMBA;-6.92838833;-77.89986;
CHUQUIBAMBA;-6.93358667;-77.85454333;
ATUEN;-6.93358667;-77.85454333;
LA MORADA;-6.94001;-77.78264;
GRANADA;-6.10623667;-77.62760333;
PUESTO DE SALUD ESTABLECIMIENTO PENAL CHACHAPOYAS;-6.16052794;-77.86757325;
HUANCAS;-6.17355167;-77.86441167;
BUIQUIL;-6.45658833;-77.84196167;
NUEVA ESPERANZA;-6.48263697;-77.81929236;
EL TRIUNFO;-6.48263697;-77.81929236;
JALCA GRANDE;-6.48513667;-77.81563167;
CUEYQUETA;-6.52561333;-77.814225;
QUELUCAS;-6.52920167;-77.82646;
PENGOTE;-6.54547333;-77.811515;
QUILLUNYA;-6.55844333;-77.812755;
Centro Médico San Bartolome;-6.56673062;-77.82916248;
YERBABUENA;-6.57131833;-77.826915;
LEYMEBAMBA;-6.70631833;-77.803755;
COLISEO RAYMIPAMPA;-6.707206551;-77.80417;
PLAZAPAMPA;-6.75680667;-77.93209833;
CHILCHOS;-6.93358667;-77.85454333;
LEVANTO;-6.307315;-77.89943833;
MAGDALENA;-6.37534167;-77.89940667;
BUIQUIL LOCAL COMUNAL;-6.462610882;-77.81616;
COLISEO YERBABUENA;-6.566351869;-77.82741417;
TACTA;-6.58032833;-77.80443;
DURAZNOPAMPA;-6.591425;-77.81140667;
CASMAL;-6.178955;-77.71806667;
MOLINOPAMPA;-6.207005;-77.66883333;
I.E.P 18071;-6.218759845;-77.58008013;
CENTRO DE SALUD MOLINOPAMPA;-6.236848565;-77.58591661;
SAN JOSE;-6.28275;-77.5608;
IZCUCHACA;-6.28275;-77.5608;
MONTEVIDEO;-6.618715;-77.8013;
SAN MIGUEL DE LA REYNA;-6.00426299;-77.71967219;
OLLEROS;-6.05255833;-77.646825;
QUINJALCA;-6.09196333;-77.67861833;
CHONTAPAMPA DE QUINJALCA;-6.16699285;-77.72580157;
PIPUS;-6.22852068;-77.73144253;
MAINO;-6.33839667;-77.88079833;
MITO;-6.24945041;-77.76727656;
QUITACHI;-6.24945041;-77.76727656;
SOLOCO;-6.2593825;-77.74440804;
OQUISH;-6.3843291;-77.54697927;
NUEVO OLMAL;-6.1847909;-77.77968643;
SONCHE;-6.2199079;-77.77508945;
NARANJOS;-5.49428538;-78.49669412;
ESPITAL;-5.51853027;-78.49993273;
ACERILLO;-5.53913422;-78.54861946;
CASUAL;-5.58867832;-78.55292425;
LABORATORIO CLINICO BIOLAB;-5.6312584;-78.5455741;
BAGUA;-5.6313198;-78.53222414;
CLÍNICA AMAZONAS;-5.6315221;-78.5458453;
Policlínico El Rosario;-5.63264165;-78.5310261;
HOSPITAL I HEROES DEL CENEPA;-5.63313044;-78.53341476;
LA PRIMAVERA;-5.63474476;-78.54057436;
CENTRO DE SALUD MENTAL COMUNITARIO BAGUA;-5.6348174;-78.5328094;
CENTRO MEDICO HERSEL;-5.63488757;-78.53395594;
BAGUA MEDIKAL BREVETES S.R.L.;-5.6361357;-78.5307552;
SAMU DE LA RED DE SALUD BAGUA;-5.6361357;-78.5307552;
CONSULTORIO CLÍNICO MQN;-5.6361357;-78.5307552;
CATS BAGUA;-5.6361357;-78.5307552;
Colegio Mesones Muro;-5.637175;-78.5361572;
Servicios Odontológicos San Luis;-5.6380116;-78.5300246;
LABORATORIO CLÍNICO SAN CAMILO;-5.6381456;-78.531763;
LABORATORIO DE REFERENCIA REGIONAL EN SALUD PUBLICA BAGUA;-5.63862723;-78.53001363;
Colegio La Inmaculada;-5.6389831;-78.5294067;
POSTA MEDICA  POLICIAL  BAGUA;-5.63918393;-78.53230619;
SERVIMEDIC J&R;-5.63941352;-78.53527204;
HOSPITAL DE APOYO GUSTAVO LANATTA LUJAN;-5.63951591;-78.53075225;
MEDIC SALUD;-5.6401962;-78.5309283;
PASTEUR S.R.L;-5.64020963;-78.53203895;
EMPRESA PRESTADORA DE SERVICIOS DE SALUD CONSULTORIOS MÉDICOS ESPECIALIZADOS PAST;-5.64020963;-78.53203895;
Policlínico San Juan;-5.64026396;-78.53444091;
Colegio Agropecuario;-5.6405347;-78.5238937;
Consultorio Dental  Kristell Dent;-5.64099103;-78.53281245;
CENTRO DE SALUD MENTAL COMUNITARIO BAGUA;-5.64103908;-78.52435813;
INTERREGIONAL;-5.6411891;-78.5280311;
I.E 201;-5.6415082;-78.5358376;
TOMAQUE;-5.64934727;-78.50558236;
CRUCE ALENYA;-5.67015768;-78.48929543;
ARAMANGO;-3.63931836;-77.77073679;
SHAIM;-5.23914833;-78.48746756;
NAJEM;-5.26157904;-78.44084408;
MONTENEGRO;-5.30635244;-78.42946336;
TUTUMBEROS;-5.33835873;-78.4546586;
SAN JUAN DE DIOS;-5.35602547;-78.52921244;
CHINGANZA;-5.36293198;-78.45039335;
ZAPOTAL;-5.36977385;-78.5161875;
I.E.P.N° 16201;-5.40754;-78.4283;
I.E. N°16201 ARAMANGO;-5.416608454;-78.43813346;
SELVA VERDE;-5.41776606;-78.36697712;
EL MUYO;-5.41944618;-78.45594658;
Mini Coliseo Municipal - EL POLVORIN;-5.421735277;-78.45186637;
GUAYAQUIL;-5.43010719;-78.38579224;
EL CEDRON;-5.43090611;-78.40117231;
NUMPARKET;-5.44369514;-78.38642907;
LA LIBERTAD;-5.44720018;-78.48675871;
MIRAFLORES DE ARAMANGO;-5.44825761;-78.40846308;
COPALLIN DE ARAMANGO;-5.45976793;-78.45834617;
SANTA CLARA;-5.48178344;-78.4515685;
Mini Coliseo Municipal - EL PORVENIR;-5.482856885;-78.42802452;
EL PORVENIR DE ARAMANGO;-5.48432278;-78.42750406;
CAMPO BONITO;-5.5074241;-78.44629382;
CHONZA LAGUNA;-5.63915903;-78.39942245;
SANTA CRUZ DE MOROCHAL;-5.66177651;-78.36044303;
PAN DE AZUCAR;-5.67129736;-78.38651325;
COPALLIN;-5.67553775;-78.42441106;
I.E.Sagrado Corazon De Jesus COPALLIN;-5.676027014;-78.42574341;
LLUHUANA;-5.67723361;-78.40024253;
ALENYA;-5.68677213;-78.47972571;
UNION PROGRESO;-5.57428761;-78.48223036;
TOLOPAMPA;-5.60118938;-78.48162929;
EL PARCO;-5.62495543;-78.47681192;
PLAZA PRINCIPAL - EL PARCO;-5.625350897;-78.47570683;
WAYAMPIAK;-4.612666946;-78.60037857;
NUEVA VIDA;-4.64815323;-78.15277009;
TUNTUS;-4.66263425;-78.59098482;
JEMPEST-CHICAIS;-4.69733252;-78.18785343;
SAN PABLO;-4.75994492;-78.1833502;
CHIJA;-4.77071028;-78.52230725;
LISTRA;-4.77464297;-78.3176315;
KUSU;-4.78145065;-78.31395066;
CHIPE;-4.79250109;-78.28845567;
Loza Deportiva - Chipe;-4.794614543;-78.2890744;
CENTRO WAWIK;-4.80760375;-78.19816424;
NUEVO BELEN;-4.83834236;-78.19190105;
NUMPATKAIM;-4.85389725;-78.32544107;
WAYAMPIAK;-4.86901258;-78.52249417;
Mini Coliseo Municipal - Tupac Amaru;-4.894409147;-78.20480661;
TUPAC AMARU I;-4.89503823;-78.20610435;
SIJIAK;-4.92345364;-78.50087132;
CASA COMUNAL - IMACITA;-4.930037653;-78.22959268;
WAWICO;-4.9358265;-78.19867763;
WAJUYAT;-4.93741394;-78.33730804;
BICHANAK;-4.93879567;-78.19650613;
YANAT;-4.94334959;-78.53825863;
UUT;-4.9783113;-78.33260205;
WANTSA;-4.99684765;-78.38723043;
KUNCHIN;-5.04060814;-78.42923854;
KUSU GRANDE;-5.04509612;-78.26427824;
YAMAYAKAT;-5.05625558;-78.33984079;
IMAZA;-5.05830398;-78.33673233;
MESONES MURO;-5.07389419;-78.33149575;
TENASHNUM;-5.09401363;-78.35811848;
NAZARETH;-5.138695;-78.31801561;
WAWAIN;-5.14588305;-78.23646555;
SAN RAFAEL;-5.1544898;-78.34421527;
CHIRIACO;-5.1594417;-78.287257;
MINI COLISEO MUNICIPAL - CHIRIACO;-5.162687062;-78.28686225;
SAN RAMON;-5.16693653;-78.36667255;
SAMAREN-YUPICUSA;-5.18955644;-78.37917769;
SHIMPUENTS;-5.19264833;-78.14707381;
SHUSHUG;-5.20103699;-78.32264191;
PAKUIT;-5.2081077;-78.26808986;
WAWAS;-5.22613694;-78.34571655;
NAYUMPIN;-5.23070271;-78.25472263;
DURAND;-5.2380859;-78.36399959;
SUKUTIN;-5.30660281;-78.29388118;
SAN ISIDRO;-5.55421599;-78.48168473;
ARRAYAN;-5.60022326;-78.4426359;
LA PECA;-5.60813775;-78.43618046;
Colegio Fe Y Alegria - LA PECA;-5.609089344;-78.43788232;
CHONZA ALTA;-5.61956241;-78.40155231;
SAN FRANCISCO;-5.62242794;-78.44988377;
EL TRIUNFO;-5.63867479;-78.42151785;
C.S JUMBILLA;-5.898573533;-77.79932871;
JUMBILLA;-5.9050563;-77.79617018;
LAS PALMAS;-5.90550586;-77.7979707;
CHISQUILLA;-5.89015508;-77.79387234;
CHURUJA;-6.01546751;-77.95452493;
COROSHA;-5.81849803;-77.82779517;
CUISPES;-5.94356629;-77.97722101;
FANRRE;-5.94356629;-77.97722101;
POMACOCHAS;-5.82481484;-77.96734866;
SAN JOSE DE POMACOCHAS;-5.82481484;-77.96734866;
GUALULO;-5.84925534;-77.9092696;
CARRERA;-5.87043621;-77.95667883;
PEDRO RUIZ GALLO;-5.94356629;-77.97722101;
CHOSGON;-5.94356629;-77.97722101;
SAN JERONIMO;-5.94356629;-77.97722101;
LA UNION;-5.94356629;-77.97722101;
DUNIA CHICO;-5.94356629;-77.97722101;
Servicios Médicos San Andrés;-5.94417449;-77.97824879;
REMOTTI;-5.94643118;-77.97713182;
SERVICIOS A&M SANTA FE SAC;-5.9467286;-77.9789692;
"CONSULTORIO ODONTOLOGICO ""DUODENT""";-5.9473198;-78.0309542;
CONSULTORIO ODONTOLOGICO BUSTAMANTE;-5.9473198;-78.0309542;
CENTRO DE ATENCIÓN PRIMARIA I PEDRO RUIZ;-5.95021597;-77.9794936;
RECTA;-5.917634;-77.78963568;
SAN CARLOS;-5.94356629;-77.97722101;
SHISPASBAMBA;-5.86804;-78.07163;
LOCAL I.E 18322 ABRAHAM LOPEZ LUCERO;-5.897667058;-78.04833335;
LA FLORIDA DE SHIPASBAMBA;-5.94356629;-77.97722101;
COMBOCA;-5.94356629;-77.97722101;
SAN PABLO DE VALERA;-5.94356629;-77.97722101;
MATIAZA RIMACHI;-6.04943033;-77.92989816;
COCACHIMBA;-6.05766291;-77.89473162;
LA COCA;-6.06772986;-77.89589449;
PERLA DE IMAZA;-5.59201592;-77.96791578;
LA FLORIDA DE YAMBRASBAMBA;-5.67772227;-77.93666067;
PROGRESO;-5.69603315;-77.86218047;
LA ESPERANZA;-5.70816362;-77.90601295;
CHAYUYAKU;-5.73348047;-77.92651367;
BUENOS AIRES;-5.73679503;-77.90663482;
YAMBRASBAMBA;-5.82481484;-77.96734866;
VILLA HERMOSA;-5.82481484;-77.96734866;
SAASA;-4.43959553;-78.00247192;
YUMINGKUS;-4.47065258;-77.96450788;
ATSAKUS;-4.47725942;-77.78875356;
BAJO PUPUNTAS;-4.47990307;-77.67897073;
SANTA MARIA DE NIEVA;-4.48901;-77.69266;
PAKINTSA;-4.49355551;-77.76610772;
BASHUTAK;-4.49409804;-77.68595773;
PUMPUSHAK;-4.51771427;-77.94944979;
Plaza De Armas;-4.5921;-77.8638;
Complejo Deportivo;-4.5923;-77.8758;
SANTA MARIA DE NIEVA;-4.59319235;-77.86553857;
San José;-4.59392621;-77.8688522;
Mercado De Abastos;-4.5977;-77.8618;
NIEVA;-4.59874191;-77.86777521;
SAMU CONDORCANQUI;-4.59882421;-77.86804753;
SANTA MARIA DE NIEVA;-4.6000761;-77.86555388;
ENFERMERÍA BATALLÓN DE INFANTERÍA SELVA  N° 32 - CIRO ALEGRÍA;-4.6010065;-77.8610254;
"CENTRO DE SALUD MENTAL COMUNITARIO ""EL BUEN VIVIR""";-4.6010065;-77.8610254;
ALTO PAJACUSA;-4.61003175;-77.73921567;
CIRO ALEGRIA;-4.61476038;-77.94526065;
KIGKIS;-4.646674591;-78.10096622;
NAPURUKA;-4.65629973;-78.03473963;
NUEVO SEASME;-4.68760656;-77.80792734;
ENFERMERIA UMAR N° 1 - URAKUZA;-4.70939522;-78.04959542;
URAKUSA;-4.71539445;-78.05480089;
Local Comunal;-4.71539445;-78.05480089;
NUEVA UNIDA;-4.83102303;-77.93784934;
TAYUNTSA;-4.83413493;-77.94968267;
Local Comunal;-4.83413493;-77.94968267;
CHORROS;-4.84577979;-78.02323898;
KIGKIS;-4.89524554;-77.92391925;
PUTUYAKAT;-4.90139988;-78.03763949;
PUTUYAKAT;-4.9018;-78.0369;
CUZUMATAK;-4.91502856;-78.10672256;
ALAN GARCIA;-4.93136734;-78.11738308;
PAANTAM;-4.93267302;-78.09994035;
IPAKUMA;-4.93846886;-77.96216356;
KAYAMAS;-5.08513489;-77.96970784;
CACHIACCO;-5.12185365;-77.94976945;
NUMPATKAIM;-5.19456373;-77.87381296;
WICHIM;-3.93675;-78.18466667;
Local Comunal;-4.1891;-78.2771;
SHAIM;-4.272535;-78.35663;
TEESH;-4.31030167;-78.38485333;
TUANG ENTSA;-4.3639;-78.19789667;
El Tambo - Midis;-4.3829;-78.3088;
KUSU NUMPATKAIM;-4.40234333;-78.41110833;
KUYUMATAK;-4.40270701;-78.34500867;
KUMPIN;-4.4109224;-78.06726056;
KUSU PAGATA;-4.41296237;-78.27010712;
KUSU KUBAIM;-4.43221945;-78.24969325;
HUAMPAMI;-4.45049297;-78.15919936;
CANGA;-4.4584026;-78.19543074;
ACHUIM;-4.480455;-78.45733333;
PAMPA ENTZA;-4.52902333;-78.46205;
PAANTAN ENTSA;-4.54338284;-78.27977735;
SHAMATAK GRANDE;-4.57846;-78.47882333;
MAMAYAQUE;-4.60427631;-78.20180575;
WAWAIN;-4.63516546;-78.15071298;
PAPAYACU;-3.10565857;-77.82999048;
AMPAMA;-3.25418543;-77.87680512;
CUCUAZA;-3.33967804;-77.8776449;
CANDUNGOS;-3.4029;-77.8431;
CANDUNGOS;-3.4569094;-77.84906252;
El Tambo - Midis;-3.5249;-77.7716;
PASHKUS;-3.5785935;-78.10033359;
AYAMBIS;-3.63926546;-77.77069513;
NAUTA;-3.67760148;-77.75785352;
CHOSICA;-3.8875905;-77.71431115;
CHINGANAZA;-3.91696949;-77.7490066;
AITAM;-3.92846438;-77.85048641;
Local Comunal;-3.9822;-78.1162;
GALILEA;-4.01610693;-77.7537907;
SHIRINGA;-4.02333402;-77.77779657;
ALTO YUTUPIS;-4.04828432;-77.8628288;
Local Comunal;-4.057588;-77.7674896;
GUAYABAL;-4.1618257;-77.71031569;
BELEN;-4.24117688;-77.72527134;
KAGKAS;-4.28254671;-77.86384183;
SAN RAFAEL;-4.34556197;-77.69716414;
Colegio Blas Balera;-6.105349927;-77.95032019;
CUEMAL;-6.118405;-77.98051;
CENTRO DE ATENCIÓN PRIMARIA I LAMUD;-6.13763448;-77.95043343;
SEÑOR DE GUALAMITA;-6.1380556;-77.9523124;
Coliseo De Lamud;-6.1388389;-77.9515602;
LAMUD;-6.142925;-77.95231167;
IEP. BRAULIO CAMPORREDONDO;-6.16651301;-78.32575684;
LA LIBERTAD;-6.18356333;-78.32551833;
GUADALUPE;-6.18595333;-78.35721;
COCOCHO;-6.19029167;-78.32629167;
EL PALTO;-6.20587333;-78.30294333;
CAMPORREDONDO;-6.21838333;-78.32180833;
YOMBLON DE COCABAMBA;-6.43024257;-77.96287947;
BALERIANA;-6.43024257;-77.96287947;
BUENA VISTA;-6.43024257;-77.96287947;
QUISQUIS;-6.53921;-78.078435;
CHUILON;-6.58399;-78.09759;
COCABAMBA;-6.61425167;-78.00414333;
MENDAN;-6.61673;-78.10155;
COLCAMAR;-6.29909333;-77.974375;
PONAYA;-6.29963167;-77.938155;
COCHA;-6.31865333;-77.96077333;
QUILLILLIC;-6.34381;-77.95720167;
SAN ISIDRO DE QUIUCMAL;-6.08732337;-78.17924974;
CONILA COHECHAN;-6.18883;-78.01653;
NUEVO LUYA;-6.226715;-78.00613167;
INGUILPATA;-6.23962333;-77.95612833;
CHOCTAMAL;-6.39118333;-77.98595167;
LONGUITA;-6.413325;-77.96865;
CAMELIN;-6.21376833;-77.98687167;
LONYA CHICO;-6.23059667;-77.95549167;
SAN PEDRO Y SAN PABLO;-6.24136025;-78.15855161;
COROBAMBA;-6.15525833;-77.97937833;
LUYA;-6.16123333;-77.946835;
SHIPATA;-6.16619333;-78.008995;
CHOCTA;-6.17005333;-78.029485;
COLMATA;-6.18182333;-77.98355833;
COLISEO GRAN CHILLAOS;-6.199338797;-77.94978542;
LUYA VIEJO;-6.141175;-78.02806333;
MARIA;-6.43024257;-77.96287947;
QUISPE;-6.20717167;-78.28440167;
C.S OCALLI;-6.207324259;-78.27034329;
OCALLI;-6.235885;-78.26669667;
POSTA MEDICA OCALLI;-6.23603333;-78.26676167;
CELCHO CUZCO;-6.24454833;-78.240855;
TACTAMAL;-6.25229;-78.21459667;
SAN JUAN DE OCUMAL;-6.27448016;-78.17132537;
COLLONCE;-6.28132603;-78.20750359;
CALDERA;-6.29650325;-78.21809173;
YAULICACHI;-6.304225;-78.12733833;
VISTA HERMOSA DE OCUMAL;-6.32129942;-78.10934787;
PIRCAPAMPA;-6.333955;-78.20773833;
HUARANGUILLO;-6.34610944;-78.27926804;
SAN MIGUEL DE PORO PORO;-6.35215472;-78.20041402;
PUEBLO NUEVO;-6.376185;-78.14105;
TRIBULON;-6.38371667;-78.13239667;
EL REJO;-6.39289167;-78.10914667;
MEMBRILLO;-6.40552076;-78.10406937;
COLEGIO TUPAC AMARU;-6.415326732;-78.11641251;
PISUQUIA;-6.41891833;-78.11577333;
YOMBLON DE PISUQUIA;-6.44932274;-78.09297849;
SAN RAMON;-6.4768;-78.12377;
PLAYA JUMETH;-6.26735333;-78.27616833;
PROVIDENCIA;-6.29522137;-78.24157727;
NUEVO CHOTA;-6.31034249;-78.29669034;
SAN CRISTOBAL DE OLTO;-6.10288;-77.96173;
COLISEO CERRADO;-6.105349927;-77.95512671;
SAN FRANCISCO DEL YESO;-6.64747;-77.81231333;
COLISEO DE LA I.E Nº 102 POMACOCHAS;-6.726242816;-77.82732834;
PACLAS;-6.05873667;-77.97347833;
SAN JUAN DE LOPECANCHA;-6.49730333;-77.86332;
EL MANGO;-6.510015;-77.87701;
INGENIO;-6.00352409;-78.14906176;
SALAZAR;-6.03027445;-78.13535202;
SAN JUAN DE PROVIDENCIA;-6.04664734;-78.15191625;
SANTA CATALINA;-6.113205;-78.06186167;
LLACTAPAMPA;-6.48001743;-77.92065297;
MARAYPATA;-6.511615;-77.89130333;
AGUA SANTA;-6.51279681;-77.91741283;
SAN SALVADOR;-6.55255333;-77.87822667;
SANTO TOMAS;-6.57358333;-77.86655833;
TINTIN;-6.60693833;-77.84872667;
TINGO;-6.37164667;-77.90919667;
KUELAP;-6.41980167;-77.92142167;
TRITA;-6.146975;-78.01163667;
CRUZPATA;-6.16132833;-78.034555;
I.E.E. 18207 San Nicolas;-6.3939;-77.4865887;
Consultorio Odontológico Vita;-6.39472606;-77.48252999;
Polideportivo De La I.E.E. 18207- San Nicolas;-6.39509801;-77.48491462;
SAGRADO CORAZON DE JESUS;-6.39531502;-77.47971562;
TECNOMEDIC;-6.39536864;-77.47929073;
HOSPITAL MARIA AUXILIADORA DE RODRIGUEZ DE MENDOZA;-6.395489004;-77.47875487;
MARIA AUXILIADORA;-6.39564667;-77.47855167;
SAN NICOLAS;-6.39573617;-77.48128739;
GENESIS M&N;-6.39581831;-77.48214125;
CENTRO MÉDICO RENACER;-6.39637806;-77.48166918;
CATS Rodríguez de Mendoza;-6.39650129;-77.48286258;
CENTRO DE ATENCIÓN PRIMARIA II RODRÍGUEZ DE MENDOZA;-6.39752206;-77.47886804;
INTEGRAMENTE HUAYABAMBA;-6.4313869;-77.5318683;
CHIRIMOTO;-6.51979504;-77.44193491;
ACHAMAL;-6.53154942;-77.41254074;
LUZ DEL ORIENTE;-6.56491;-77.36106;
ZARUMILLA;-6.56652485;-77.38057225;
SANTO TORIBIO;-6.56652485;-77.38057225;
SAN ANTONIO;-6.64387941;-77.33650482;
COCHAMAL;-6.408625;-77.57784503;
NUEVO HORIZONTE;-6.41928785;-77.50477249;
CHONTAPAMPA DE HUAMBO;-6.41994341;-77.555558;
CENTRO DE SALUD HUAMBO;-6.42004777;-77.53371665;
HUAMBO;-6.43124145;-77.53397861;
LIMABAMBA;-6.49902126;-77.49921411;
MONTEALEGRE;-6.49902126;-77.49921411;
LONGAR;-6.3843291;-77.54697927;
SHUCUSH;-6.39313093;-77.56870994;
MICHINA;-6.37756258;-77.52195554;
MARISCAL BENAVIDES;-6.38657963;-77.50338312;
CHONTAPAMPA DE MILPUC;-6.49460457;-77.41009594;
MILPUC;-6.49974249;-77.43726111;
NUEVO OMIA;-6.3496421;-77.32393061;
COLISEO DEPORTIVO OMIA;-6.404305292;-77.41508684;
EL LIBANO;-6.40579;-77.30793;
LA PRIMAVERA;-6.45750797;-77.33132749;
JAVRULOT;-6.45750797;-77.33132749;
OMIA;-6.46913004;-77.39600001;
LOZA DEPORTIVA MULTIUSOS NUEVO CHIRIMOTO;-6.473253676;-77.36790658;
TOCUYA;-6.47821395;-77.37011101;
GARZAYACU;-6.517539;-77.026583;
MASHUYACU;-6.51851744;-77.24500802;
PAUJIL;-6.51851744;-77.24500802;
NUEVO CHIRIMOTO;-6.55129879;-77.2372622;
EL DORADO;-6.56652485;-77.38057225;
NUEVO CHACHAPOYAS;-6.56652485;-77.38057225;
VISTA HERMOZA DE OMIA;-6.56652485;-77.38057225;
EL GUAMBO;-6.56652485;-77.38057225;
LEGIA CHICO;-6.60066721;-77.33178353;
SANTA ROSA;-6.45212256;-77.45508731;
TOTORA;-6.4845816;-77.46617894;
HOSPITAL MARIA AUXILIADORA;-6.492299901;-77.47007473;
CENTRO DE SALUD TOTORA;-6.492982143;-77.47179134;
VISTA ALEGRE;-5.82481484;-77.96734866;
SALAS;-6.19003;-77.23232;
LA VICTORIA;-5.71436361;-78.48780945;
MORROPON;-5.75074114;-78.53821932;
HOSPITAL EL BUEN SAMARITANO;-5.75149999;-78.44633413;
C.S. Utcubamba;-5.75307378;-78.44694034;
UTCUBAMBA;-5.75307378;-78.44694034;
Urbina Salud;-5.75348303;-78.44634991;
HOSPITAL  SANTIAGO APOSTOL DE UTCUBAMBA;-5.75390793;-78.44056263;
HOSPITAL DE APOYO SANTIAGO APOSTOL;-5.7539496;-78.4423546;
CONSULTORIO DENTAL LINARES ROJAS;-5.7555172;-78.4454625;
CENTRO DE SALUD MENTAL  COMUNITARIO CreeSer;-5.7566749;-78.443932;
SERVIMEDIC AMAZONAS;-5.7566749;-78.443932;
MANOS DIVINAS;-5.7566749;-78.443932;
CATS UTCUBAMBA;-5.7566749;-78.443932;
POLICLINICO POLICIAL BAGUA GRANDE;-5.75691735;-78.4404681;
CLINICA DOCTOR NIXON;-5.75718062;-78.43785143;
SELHER;-5.75731805;-78.43878484;
CENTRO MEDICO HERSEL H.R E.I.R.L;-5.75737357;-78.43867934;
MAVILA MONTENEGRO MORI;-5.75738303;-78.43453713;
Puesto de Salud Establecimiento Penal Bagua Grande;-5.7574791;-78.4524065;
I.E N°16211;-5.7586749;-78.4617468;
I.E. Fe Y Alegría;-5.7586749;-78.4617468;
P.S. San Luis;-5.76395564;-78.42633822;
SAN LUIS;-5.76395564;-78.42633822;
I.E N°16228-San Luis;-5.7639919;-78.432292;
EL PINTOR;-5.76497833;-78.51662833;
JAHUANGA;-5.77477085;-78.56321359;
NUEVO HORIZONTE;-5.82542;-78.54122;
COLLICATE;-5.83146905;-78.44301809;
TOMOCHO;-5.85213815;-78.42530514;
BUENA VISTA;-5.85291833;-78.49864;
Ii.Ee Miraflores;-5.8594293;-78.3683355;
MIRAFLORES;-5.85970856;-78.36659289;
EL PORVENIR DE MIRAFLORES;-5.86053777;-78.39451762;
VISTA HERMOSA;-5.86134741;-78.43073282;
CAMPO ALEGRE;-5.86183873;-78.44751476;
MIRAFLORES DE BUENAVISTA;-5.87684947;-78.49253911;
I.E. Leoncio Prado - Collicate;-5.881678;-78.4488687;
EL BALCON;-5.88542669;-78.46848147;
SANTA CLARA;-5.88738524;-78.43733165;
PONA ALTA;-5.89154602;-78.37749903;
NUEVO ORIENTE;-5.89356532;-78.3932711;
I.E. 16596 - Nuñya Jalca;-5.8956467;-78.3096018;
ÑUNYA JALCA;-5.89684092;-78.30994749;
I.E. 16596 - NUÑYA JALCA;-5.896850408;-78.30864401;
NUEVA INDEPENDENCIA;-5.89852715;-78.33918968;
SACHAPOYAS;-5.90493143;-78.38550983;
ALTO PERU;-5.90782105;-78.44785281;
C.S Alto Perú;-5.90782105;-78.44785281;
PUEBLO LIBRE;-5.91368767;-78.34920488;
ROSAPAMPA;-5.92857425;-78.4476876;
PLAYA GRANDE;-5.93033383;-78.3688586;
LA PALMA;-5.93660396;-78.29428934;
PROGRESO SAN ANTONIO;-5.96022486;-78.31703377;
ALTO UTCUBAMBA;-5.57854102;-78.00135938;
LA ESPERANZA;-5.62271094;-78.04883008;
ALTO SAN JOSE;-5.62908008;-78.355;
PROGRESO;-5.65435;-78.35682;
BUENOS AIRES;-5.67619835;-78.33930243;
SAN JUAN DE LA LIBERTAD;-5.68632664;-78.37671476;
EL ALISO;-5.69308984;-78.13500977;
DIAMANTE ALTO;-5.69649913;-78.34607651;
DIAMANTE BAJO;-5.70858109;-78.34555677;
LA UNION;-5.71205281;-78.28831817;
SAN JOSE BAJO;-5.71342354;-78.40575375;
ALTO AMAZONAS;-5.7227442;-78.28330747;
C.S Alto Amazonas;-5.7227442;-78.28330747;
SANTA ISABEL;-5.72885419;-78.33307059;
JOSE OLAYA;-5.72937668;-78.30585559;
Coliseo De Cajaruro;-5.7324587;-78.4276132;
CHALACO;-5.73341656;-78.26137972;
CAJARURO;-5.73674961;-78.43009799;
Ii.Ee San Cristobal;-5.7370258;-78.4257048;
NARANJOS ALTOS;-5.73797464;-78.36126153;
MISQUIYACU ALTO;-5.74164036;-78.33570459;
CHUNGUINA;-5.74682586;-78.40638681;
LUNCHICATE;-5.74972489;-78.2836023;
EL TIGRE;-5.75065627;-78.30974313;
I.E.Pedro Ruiz Gallo - Naranjitos;-5.7522328;-78.4273241;
EL RON;-5.75228167;-78.25288333;
NUEVA ESPERANZA DE CAJARURO;-5.7523819;-78.4272615;
Ii.Ee. El Ron;-5.754629;-78.255357;
NUEVO PIURA;-5.76231798;-78.31605201;
MANDINGAS ALTO;-5.77354;-78.22542;
MISQUIYACU BAJO;-5.78729151;-78.33069069;
SEDA FLOR;-5.80977;-78.18792;
SAN CRISTOBAL;-5.81421;-78.11653;
LOS PATOS;-5.85813167;-78.17107667;
EL REJO;-5.862675;-78.62288;
LA FLOR;-5.91313735;-78.53529323;
NUEVA ESPERANZA;-5.91551565;-78.56145421;
Institución Educativa - Nueva Esperanza;-5.9264233;-78.5254767;
VISTA HERMOZA;-5.93349322;-78.59523241;
CUMBA;-5.93384564;-78.66316525;
CHALLUAYACU DE CUMBA;-5.9341855;-78.6646942;
I.E. Cesar Abraham Vallejos Mendoza Cumba;-5.9358136;-78.6645672;
MIRAFLORES;-5.94397115;-78.55019649;
SAN MARTÍN DE CUMBA;-5.94398;-78.5182;
HUALANGO;-5.96635712;-78.58092664;
VISTA ALEGRE DE CUMBA;-5.97377699;-78.54912357;
TACTAGO;-5.98077867;-78.62891538;
OCTUCHO;-5.99695772;-78.56885121;
SAN PEDRO DE LA PAPAYA;-5.59596667;-78.57345833;
"CENTRO DE SALUD MILITAR ""EL MILAGRO"" 6° BRIG SVA";-5.63578103;-78.55931096;
Loza Deportiva - El Milagro;-5.6374216;-78.5623594;
EL MILAGRO;-5.63853;-78.562425;
HUARANGOPAMPA;-5.675202;-78.520234;
EL REPOSO;-5.71755652;-78.61453189;
SIEMPRE VIVA;-5.749209;-78.66342793;
Puerto Naranjitos;-5.82160064;-78.27491599;
EL SALAO;-5.83755138;-78.24501087;
Ricardo Palma Soriano - Jamalca;-5.8631176;-78.2584898;
PURURCO;-5.88984336;-78.26355328;
JAMALCA;-5.89370809;-78.23631112;
ASERRADERO;-5.90204093;-78.16015572;
EL LAUREL;-5.92560126;-78.27882169;
VISTA HERMOSA;-5.92799943;-78.25805709;
SAN MARTIN DE PORRAS;-5.93884828;-78.16557865;
DUELAC;-5.94364609;-78.14938482;
TAMBOLIC;-5.985724;-78.171161;
DUNIA GRANDE;-5.98599915;-78.15194813;
SAN MIGUEL;-5.9888776;-78.46091437;
HUAMBOYA;-6.0138914;-78.39719858;
LA UNION;-6.03212196;-78.48408187;
ORTIZ ARRIETA;-6.03768461;-78.39327837;
SAN FELIPE;-6.04549708;-78.41521225;
NUEVA YORK;-6.04917074;-78.39681234;
ROBLEPAMPA;-6.05968026;-78.40330328;
ZAPATALGO;-6.07522096;-78.49073554;
LONYA GRANDE;-6.09625678;-78.42137991;
C.S Lonya Grande;-6.09625678;-78.42137991;
YUNGASUYO;-6.15384388;-78.37482562;
SANTA ROSA DE JAIPE;-6.16111456;-78.34204961;
SAN RAMON;-5.97628951;-78.45401573;
VISTA ALEGRE DE YAMON;-5.99768818;-78.53735036;
Mini Complejo Deportivo - Vista Alegre De Yamon;-5.999551;-78.5374209;
EL PALTO;-6.01312262;-78.49454289;
I.E. El Palto;-6.0131227;-78.4941082;
PUEBLO NUEVO DE YAMON;-6.03342667;-78.51951167;
YAMON;-6.05104667;-78.52898667;
MALLETA;-6.06581685;-78.59984721;
CENTRO MEDICO OLIDENT CLINIC SAC;-9.5006;-77.5362;
PUESTO DE SALUD COYLLUR;-9.52471113;-77.49029578;
CENTRO DE SALUD HUARUPAMPA;-9.525825;-77.53026167;
CISEA Huarupampa;-9.525839427;-77.53021603;
SAN FRANCISCO DE ASIS;-9.52605;-77.527986;
"CONSULTORIO DENTAL ""SAN VICENTE""";-9.5261154;-77.5287792;
Esquina de Av. Raymondi / Av. Luzuriaga;-9.526267953;-77.52880519;
"CENTRO DE AISLAMIENTO TEMPORAL ""CASA BLANCA""";-9.526278;-77.53126;
CONSULTORIO MEDICO DR. SALINAS;-9.52632219;-77.52883871;
"Mercado Central "" Virgen de Fatima """;-9.526431957;-77.5305379;
MOSQUERA & MAGUIÑA - CONSULTORIO ODONTOLÓGICO ESPECIALIZADO EN ORTODONCIA;-9.52689;-77.531357;
PUESTO DE SALUD E. P. HUARAZ;-9.527019;-77.534684;
INPE - Penal Víctor Pérez Liendo;-9.527030625;-77.53447673;
I.E. La Libertad;-9.5273156;-77.52648854;
Costado Marketing Trujillo;-9.52795031;-77.5290144;
Colegio Nacional Pedro Pablo Atusparia;-9.527990587;-77.53506049;
CENTRO MEDICO ESPECIALIZADO VILLA;-9.528346;-77.526591;
SERVICIOS MÉDICOS ASOCIADOS OSTEOPERU SAC;-9.528499;-77.5267;
CENTRO MEDICO GINECO OBSTETRICO SAN FERNANDO;-9.528759;-77.53146;
PLAZA DE ARMAS HUARAZ;-9.529486983;-77.5291906;
Plaza de Armas de Huaraz;-9.530119852;-77.52876685;
CLINICA INTERNACIONAL S.A. - MEDICENTRO HUARAZ;-9.53028115;-77.53063894;
Casa Del Maestro;-9.53067108;-77.52689945;
"Centro Cultural ""Lombardo Mautino Angeles""";-9.530744486;-77.5295673;
CENTRO RADIOLOGICO DE DIAGNOSTICO POR IMAGEN DIGITAL H & M E.I.R.L.;-9.530799;-77.52525;
PUESTO DE SALUD ICHOCA;-9.53097793;-77.50461682;
I.E.I 233 La Soledad;-9.53102582;-77.52270435;
CENTRO DENTAL SAN JOSE S.A.C.;-9.53116305;-77.528009;
CLINICA ODONTOLOGICA DENTA;-9.53123122;-77.52799063;
FMC MEDICAL CENTER CENTRO DE DIAGNOSTICO;-9.5330463;-77.5288405;
CENTRO DE ESPECIALIDADES MEDICAS SAN FERNANDO;-9.533719;-77.527173;
LABORATORIO DE REFERENCIA REGIONAL ANCASH;-9.534423;-77.531801;
"HOSPITAL ""VICTOR RAMOS GUARDIA"" - HUARAZ";-9.534568;-77.529311;
I.E. Santa Rosa De Vitervo;-9.535750291;-77.52635381;
Coliseo Cerrado Huaraz;-9.53717739;-77.52778509;
HOSPIMEDIC SALUD S.A.C.;-9.53957667;-77.528055;
CENTRO MEDICO DR. SOLORZANO S.A.C;-9.5399508;-77.5264728;
CENTRO POBLADO DE QUECHCAP BAJO;-9.540531266;-77.53622395;
CENTRO MEDICO PSV MEDIC CENTER HUARAZ E.I.R.L.;-9.540836;-77.528501;
PUESTO DE SALUD MACASHCA;-9.56507333;-77.49673333;
PUESTO DE SALUD MACASHCA;-9.565081899;-77.49133961;
PUESTO DE SALUD YANACOSHCA;-9.58064667;-77.50655667;
PUESTO DE SALUD DE YANACOSHCA;-9.58433867;-77.49649471;
I.E. RICARDO PALMA;-9.586494493;-77.51925604;
PUESTO DE SALUD SAN NICOLAS;-9.59364833;-77.51508167;
PUESTO DE SALUD SAN NICOLAS;-9.593719881;-77.51507179;
PUESTO DE SALUD HUALLCOR;-9.599404076;-77.49343898;
PUESTO DE SALUD HUALLCOR;-9.60071833;-77.49385167;
PUESTO DE SALUD HUAMARIN;-9.61437962;-77.5106086;
PUESTO DE SALUD HUAMARIN;-9.61529;-77.51248;
PUESTO DE SALUD JAUNA;-9.61680667;-77.48005;
I.E.I Nº 183 DE COLLCAPAMPA;-9.617098191;-77.50613467;
PUESTO DE SALUD JAUNA;-9.617214549;-77.48121159;
PUESTO DE SALUD SANTA CATALINA;-9.64029333;-77.50606667;
PUESTO DE SALUD SANTA CATALINA;-9.640312196;-77.50608174;
PLAZA DE ARMAS DEL DISTRITO DE LLIPA;-10.39253893;-77.18916828;
ATAQUERO - COMUNIDAD DE PUMA PUCLLANAN;-9.4110617;-77.8545782;
COMUNIDAD SAN PEDRO;-9.4110617;-77.8545782;
PUESTO DE SALUD PUMA PUCLLANAN;-9.44962739;-77.86867863;
PS PUMA PUCLLANAN;-9.45474;-77.85829;
PS CHIPRE;-9.49249;-77.82696;
PUESTO DE SALUD CHIPRE;-9.49324254;-77.82617612;
COMUNIDAD DE HUANCHUY;-9.4944942;-77.8606763;
IE 86061;-9.4950639;-77.8597701;
COMUNIDAD DE CHIPRE;-9.4950639;-77.8597701;
COMPLEJO DEPORTIVO DE CHACCHAN;-9.4950639;-77.8597701;
CS COCHABAMBA;-9.4959745;-77.8616828;
PUESTO DE SALUD COCHABAMBA;-9.49597454;-77.86168279;
COLCABAMBA;-9.59360142;-77.80912509;
MUNICIPALIDAD DE COLCABAMBA;-9.59481;-77.80838;
PS COLCABAMBA;-9.59574;-77.81092;
IE 86054 JAVIER ROMERO MAGUIÑA;-9.7229175;-77.8180068;
PS HUANCHAY HZ;-9.72461;-77.82301;
PUESTO DE SALUD HUANCHAY HZ;-9.72469324;-77.82058123;
PLAZA DE ARMAS - RAYPA;-9.7452062;-77.881388;
PS RAYPA;-9.74533;-77.88061;
PUESTO DE SALUD RAYPA;-9.74596316;-77.88136554;
PLAZA DE ARMAS CENTRO POBLADO DE QUISHUAR - CORIS;-9.7878113;-77.7877012;
I.E. 86154 - Quishuar- Coris- Aija - Ancash;-9.78786;-77.7898;
CHAVIN;-9.43361632;-77.53679279;
PUESTO DE SALUD HUANJA;-9.43785757;-77.55759983;
PUESTO DE SALUD CHONTAYOC;-9.45704955;-77.54769711;
CENTRO DE SALUD MONTERREY;-9.47453774;-77.53840629;
86031 NUESTRA SEÑORA DE LA ASUNCION86031;-9.476022263;-77.53750866;
PUESTO DE SALUD MARCAC;-9.48390608;-77.53974506;
PUESTO DE SALUD MARCAC;-9.483998153;-77.53972627;
PUESTO DE SALUD COYLLUR;-9.485852064;-77.53545658;
PUESTO DE SALUD PARIA;-9.48994162;-77.51712041;
PUESTO DE SALUD PARIA;-9.490003494;-77.51713134;
CENTRO DE SALUD NICRUPAMPA;-9.491270073;-77.54644291;
HOSPITAL II HUARAZ;-9.4932;-77.53767;
PUESTO DE SALUD SHECTA;-9.493805491;-77.57360565;
PUESTO DE SALUD SHECTA;-9.49382905;-77.57355471;
Complejo Deportivo Videnita;-9.49508143;-77.53996966;
SAMU ANCASH;-9.495827;-77.540081;
PUESTO DE SALUD CURHUAZ;-9.49636239;-77.52347364;
PUESTO DE SALUD CURHUAZ;-9.496432002;-77.52354718;
"CENTRO DE SALUD MENTAL COMUNITARIO ""ALLY WARAQ""";-9.496709;-77.538073;
FMC MEDICAL CENTER CENTRO DE DIAGNOSTICO SAC;-9.500478;-77.536237;
PUESTO DE MARIAN;-9.506213789;-77.52406684;
CENTRO DE SALUD PALMIRA;-9.50711636;-77.53422246;
PUESTO DE SALUD HUANCHAC;-9.50785833;-77.51391333;
PUESTO DE SALUD HUANCHAC;-9.507898889;-77.5138959;
LABORATORIO MEDICO SANTA ROSA SAC.;-9.5080998;-77.5046101;
I.E. JESUS NAZARENO 87003-1;-9.511492596;-77.52578077;
PUESTO DE SALUD UNCHUS;-9.511631476;-77.50896064;
PUESTO DE SALUD MARIAN;-9.51351097;-77.50357635;
PUESTO DE SALUD MARIAN;-9.513597294;-77.50357048;
I.E.P Nuestra Señora Del Sagrado Corazon De Jesus;-9.5154781;-77.53261695;
Iestp Eleazar Guzmán Barrón - Huaraz;-9.51556799;-77.52629051;
COMPLEJO MEDICO SANTIAGO APOSTOL;-9.516398;-77.526878;
Ciudad Universitaria De La Unasam;-9.51755841;-77.52457101;
CLINICA SAN PABLO SEDE HUARAZ;-9.51791;-77.53094167;
PUESTO DE SALUD LLUPA;-9.51826997;-77.47858646;
PUESTO DE SALUD LLUPA;-9.518339978;-77.47854439;
Jardín Infantil 123 - Centenario- Independencia.;-9.51905237;-77.5319585;
PUESTO DE SALUD UNCHUS;-9.520072633;-77.49174622;
BARRIO INDEPENDENCIA - CARHUAZ;-9.520382143;-77.53159301;
I.E. Jorge Basadre Grohman - Huaraz;-9.520639227;-77.52601871;
CENTRO DE SALUD NICRUPAMPA;-9.52074004;-77.52403203;
GOLDENT HUARAZ;-9.52257872;-77.53078281;
PUESTO DE SALUD UNCHUS;-9.52293644;-77.49826549;
QUENUAYOC;-9.5237741;-77.55574568;
DENTAL NORDENT;-9.524319;-77.538504;
PUESTO DE SALUD QUENUAYOC;-9.52509014;-77.55438313;
CENTRO DE DIAGNOSTICO CLINICO ECOGRAFICO Dr ESCALANTE EIRL;-9.5261154;-77.5287792;
PUESTO DE SALUD ATIPAYAN;-9.53663282;-77.56404663;
ATIPAYAN;-9.5411236;-77.5653099;
HUAYAWILLCA;-9.5411236;-77.5653099;
PUESTO DE SALUD HUAYAWILLCA;-9.54705138;-77.59329406;
SANTA ROSA DE CANSHAN;-9.551672118;-77.56831397;
PUESTO DE SALUD SANTA ROSA DE CANSHAN;-9.55178405;-77.56841015;
86043 VIRGEN DE LAS MERCEDES;-9.399738253;-77.57646507;
CENTRO DE SALUD JANGAS;-9.40062833;-77.57684667;
MATAQUITA;-9.4227237;-77.59081483;
MUNICIPALIDAD DISTRITAL DE  LA LIBERTAD;-9.6329682;-77.7418002;
PUESTO DE SALUD CAJAMARQUILLA;-9.632983;-77.74258505;
PUESTO DE SALUD MASHUAN;-9.62775;-77.49887;
PUESTO DE SALUD MASHUAN;-9.627750125;-77.49883907;
PUESTO DE SALUD LLOCLLA;-9.631542708;-77.47577094;
PUESTO DE SALUD LLOCLLA;-9.631615;-77.47595833;
PUESTO DE SALUD HUARIPAMPA;-9.66205667;-77.46980333;
PUESTO DE SALUD HUARIPAMPA;-9.662766347;-77.45967768;
PUESTO DE SALUD OLLEROS;-9.666145;-77.461795;
PUESTO DE SALUD OLLEROS;-9.666610012;-77.46529959;
PUESTO DE SALUD PAMPAS GRANDE;-9.6572729;-77.82789011;
MUNICIPALIDAD DE PAMPAS GRANDE;-9.6574629;-77.8267218;
PS FORTALEZA;-9.50729;-77.77503;
COMUNIDAD PAMPAN-MARCOPAMPA;-9.5168949;-77.770637;
COMUNIDAD RURASHCA;-9.5168949;-77.770637;
PUESTO DE SALUD FORTALEZA;-9.51696856;-77.77061427;
PUESTO DE SALUD CHACCHAN;-9.5355412;-77.77619121;
PS CHACCHAN;-9.5355412;-77.7761912;
CENTRO DE SALUD PARIACOTO;-9.55940277;-77.89104101;
CS PARIACOTO;-9.5594028;-77.891041;
COMUNIDAD VIRGEN DE FATIMA DE FORTALEZA;-9.5614635;-77.8924608;
IE SAN FRANCISCO DE ASIS;-9.5628488;-77.8934352;
LOZA DEPORTIVA DE SHINAN;-9.5377167;-77.7382696;
MUNICIPALIDAD DE CENTRO POBLADO DE CANTU;-9.547774647;-77.68253548;
"INSTITUCION EDUCATIVA ""SAGRADO CORAZON DE JESUS "" N 86125";-9.5564244;-77.6543283;
MUNICPALIDAD DE JIRAC;-9.5576961;-77.7241955;
PUESTO DE SALUD YUPASH;-9.5596792;-77.68761613;
CENTRO CULTURAL DE PIRA;-9.5809592;-77.7073356;
PUESTO DE SALUD PIRA;-9.58302603;-77.70388639;
PUESTO DE SALUD PASHPA;-9.37735239;-77.52876353;
I.E. 86758 CIRO ALEGRIA BAZAN;-9.377823098;-77.52932793;
CLINICA DEL RIÑON SAN RENATO S.A.C.;-9.3928599;-77.575554;
PUESTO DE SALUD TARICA;-9.39303833;-77.574915;
LOSA DEPORTIVA DEL LOCAL COMUNAL;-9.394048888;-77.52622729;
86048 CESAR VALLEJO MENDOZA;-9.394287049;-77.57588571;
PUESTO DE SALUD COLLON;-9.3946331;-77.52750902;
Colegio 86049 JOSE CARLOS MARIATEGUI - Paltay;-9.409449652;-77.56603396;
I. E . 86049 JOSE CARLOS MARIATEGUI;-9.409653403;-77.56588107;
PUESTO DE SALUD PALTAY;-9.40975167;-77.56745667;
CENTRO DE SALUD AIJA;-9.779475;-77.60884667;
I.E. GABINO URIBE ANTUNEZ - AIJA;-9.7801441;-77.6211438;
Plaza De Aija;-9.780233;-77.610627;
I.E. 86136 - Nuestra Señora de la Medalla Milagrosa - Aija;-9.7805873;-77.6079387;
PUESTO DE SALUD  QUISHUAR;-9.78749333;-77.78839333;
COLISEO CERRADO - VILLA CORIS;-9.818923;-77.7194616;
PUESTO DE SALUD CORIS;-9.82326333;-77.71657833;
I.E. 86709;-9.88371;-77.77096;
PLAZA DE ARMAS CENTRO POBLADO DE SAN DAMIAN - CORIS;-9.8838804;-77.7707423;
SAN DAMIAN;-9.88403;-77.77097333;
PLAZA DE ARMAS DISTRITO DE HUACLLAN - AIJA;-9.7978674;-77.6754949;
PUESTO DE SALUD HUACLLAN;-9.79858;-77.67425333;
I.E. N° 86161 VIRGEN DEL CARMEN - Huacllan -Aija - Ancash.;-9.7989597;-77.6762127;
I.E. Nº 86147 - SANTA CRUZ DE RUREK - LA MERCED;-9.6976248;-77.5951995;
PUESTO DE SALUD SANTA  CRUZ;-9.698805;-77.59309667;
PUESTO DE SALUD SANTA CRUZ;-9.6992614;-77.593499;
IE VICENTE GUERRERO PALACIOS LA MERCED AIJA;-9.73466;-77.6175;
I.E. VICENTE GUERRERO PALACIOS - LA MERCED;-9.73466;-77.6175;
PUESTO DE SALUD LA MERCED;-9.73497333;-77.61464833;
I.E. N° 86144 - LA MERCED;-9.7357809;-77.6173064;
Tambo Rurimarac - Aija;-9.7535749;-77.6403678;
PLAZA DE ARMAS DE LLANQUISH;-9.817365;-77.6744675;
I.E. N° 86152 - Llanquish - Succha - Aija - Ancash;-9.81757;-77.67462;
PUESTO DE SALUD LLANQUISH;-9.81798;-77.67457167;
PUESTO DE SALUD SUCCHA;-9.82304;-77.64769667;
PLAZA DE ARMAS DE SUCCHA;-9.8232362;-77.6500472;
CENTRO DE SALUD LLAMELLIN;-9.10799941;-77.01617315;
PUESTO DE SALUD ACZO;-9.15207596;-76.99029164;
PUESTO DE SALUD CHACAS;-9.16243052;-77.01655937;
PUESTO DE SALUD  UCHUPATA;-9.2772703;-77.02699988;
PUESTO DE SALUD CHACCHO;-9.05990767;-77.05671251;
PUESTO DE SALUD CHINGAS;-9.11862785;-76.99052484;
PUESTO DE SALUD SAN MARTIN DE PARAS;-9.038867;-77.11735534;
PUESTO DE SALUD MIRGAS;-9.07956951;-77.09418474;
PUESTO DE SALUD SAN ANTONIO DE ACO;-9.10866874;-77.10772909;
PUESTO DE SALUD SAN MARTIN DE PUNCA;-9.133939;-77.083449;
PUESTO DE SALUD SAN JOSE DE ILLAURO;-9.13414018;-77.1346216;
PUESTO DE SALUD SAN JUAN DE RONTOY;-9.17917645;-77.00400013;
PUESTO DE SALUD FLOR DE CANTU;-9.26053657;-77.0814779;
PLAZA DEL CENTRO POBLADO DE SOCOS;-9.136358792;-77.36204182;
PLAZA DEL CENTRO POBLADO DE MACUASH;-9.148685197;-77.35431572;
PLAZA DEL CENTRO POBLADO DE VISCAS;-9.150182688;-77.3874705;
PLAZA DEL CENTRO POBLADO DE RAYAN;-9.153263051;-77.35166703;
PLAZA DE ARMAS DE CHACAS;-9.1620842;-77.3683319;
PLAZA DE ARMAS - CHACAS;-9.1621022;-77.3660314;
HOSPITAL MAMA ASHU CHACAS;-9.16379089;-77.36815658;
CENTRO DE SALUD CHACAS;-9.163982812;-77.36845498;
PLAZA DEL CENTRO POBLADO DE HUAYA;-9.165687506;-77.3821557;
PLAZA DEL CENTRO POBLADO DE GOYLLARHUANCA;-9.167405368;-77.36200024;
PLAZA DEL CENTRO POBLADO DE TINCO;-9.167649641;-77.3665828;
PLAZA DEL CENTRO POBLADO DE COCHAS;-9.174671266;-77.36436059;
PLAZA DEL CENTRO POBLADO DE HUALLIN;-9.180509827;-77.42324849;
ECANA;-9.276720185;-77.32046292;
I.E. PRIMARIA PADRE LORENZO SALINETTI;-9.075143796;-77.39253332;
PUESTO DE SALUD SAPCHA;-9.07647236;-77.38990734;
I.E.  86344 JAVIER HERAUD PEREZ;-9.113860326;-77.36767729;
LOZA DEPORTIVA ACOCHACA;-9.114421176;-77.36792137;
PUESTO DE SALUD ACOCHACA;-9.12169167;-77.36837833;
PUESTO DE SALUD ACOCHACA;-9.121735795;-77.36850877;
PUESTO DE SALUD PAMPA DE LAMPAS;-10.05847;-77.27379667;
IE. 86215 MARCELO GARRO OCROSPOMA - CARCAS -  CHIQUIAN - MR. CHIQUIAN;-10.11651839;-77.16448082;
CENTRO DE SALUD CHIQUIAN;-10.14750333;-77.157115;
IEI.  452 SANTA ROSITA - CHIQUIAN - MR. CHIQUIAN;-10.148826;-77.155074;
IE. 86211 CORONEL BOLOGNESI - CHIQUIAN - MR. CHIQUIAN;-10.15040521;-77.15886565;
CENTRO EDUCATIVO INICIAL TICLLOS;-10.19621358;-77.22388668;
LOCAL COMUNAL - CUSPON - CHIQUIAN - MR. CHIQUIAN;-10.24385657;-77.1647899;
MUNICIPALIDAD DISTRITAL ABELARDO PARDO LEZAMETA;-10.29896178;-77.15006166;
PUESTO DE SALUD LLACLLA;-10.30232941;-77.14530535;
I.E LUIS PARDO NOVOA- RAQUIA;-10.15652054;-77.47118665;
C.P SAN JOSE DE APAC ( RAQUIA);-10.15672432;-77.47064728;
PUESTO DE SALUD RAQUIA;-10.15755;-77.47079833;
C.P MALLAO (RAQUIA);-10.1583929;-77.46848005;
LOCAL COMUNAL - YAMOR;-10.20233181;-77.44785166;
PUESTO DE SALUD PACHAPAQUI;-9.95999745;-77.09675504;
IE. 86220 SAGRADO CORAZON DE JESUS - PACHAPAQUI - AQUIA - MR. CHIQUIAN;-9.962643678;-77.09719239;
PUESTO DE SALUD RACRACHACA;-10.04400667;-77.13074167;
LOCAL COMUNAL RACRACHACA - AQUIA - MR. CHIQUIAN;-10.04403358;-77.13049739;
IE. 86216 SAN MIGUEL - AQUIA - MR. CHIQUIAN;-10.07263491;-77.14200348;
PUESTO DE SALUD AQUIA;-10.0752737;-77.14540093;
PUESTO SATELITE DE SEQUESPAMPA;-10.15201181;-77.43859716;
PLAZA DE ARMAS DE CAJACAY;-10.15403949;-77.43894048;
C. VINUC CAJACAY;-10.15471538;-77.44100042;
CENTRO DE SALUD CAJACAY;-10.156045;-77.44037333;
CENTRO TURISTICO CAJACAY;-10.15640577;-77.35289915;
PUESTO DE SALUD COLCA;-10.157385;-77.46258667;
C.P CHAMANA (COLCA);-10.15843275;-77.46314473;
C.P TABLA GRANDE (COLCA);-10.15860172;-77.46280141;
I.E Nº 86260 CASERIO COLCA;-10.15898208;-77.46198996;
LOZA DEPORTIVA DE SANTA ROSA;-10.17410454;-77.33659132;
PUESTO DE SALUD SANTA ROSA;-10.17442227;-77.33678594;
CASERIO CACHIRPAYOC (SANTA ROSA);-10.17566726;-77.33354039;
CENTRO EDUCATIVO CANIS;-10.32575345;-77.19321282;
PUESTO DE SALUD CANIS;-10.33878377;-77.16854737;
CENTRO DE SALUD CHASQUITAMBO;-10.30015793;-77.59659896;
MARISCAL ANDRES AVELINO CACERES;-10.31244744;-77.61410842;
LOZA DEPORTIVA DE CHASQUITAMBO;-10.31246006;-77.61409634;
PUESTO DE SALUD CHASQUITAMBO;-10.31299667;-77.61470167;
LOCAL COMUNAL UTUTUPAMPA - HUALLANCA;-9.740191779;-76.95684956;
 PUESTO SATELITE ANDACHUPA- HUALLANCA;-9.786623349;-76.91778828;
INSTITUCION EDUCATIVA88367  PALMADERA  - HUALLANCA;-9.853033945;-77.03269057;
LOCAL COMUNAL LLACUASH -HUALLANCA;-9.855993273;-76.9008619;
PUESTO SATELITE HUANCAYOC - HUALLANCA;-9.868101547;-76.88098405;
POLICLINICO HUANZALA;-9.872661;-77.009134;
CASA POR CASA HUALLANCA;-9.873623201;-76.94121658;
I.E MIRAFLORES;-9.894178424;-76.93136882;
I.E INICIAL 031 SANTA ROSA;-9.895491648;-76.93598746;
COMPLEJO DEPORTIVO CAÑAVERAL-HUALLANCA;-9.89681544;-76.94260597;
I.E JOSE CARLOS MARIATIGUI;-9.897100057;-76.93791597;
CENTRO DE SALUD HUALLANCA;-9.89725167;-76.942865;
MERCADO DE MUNICIPAL;-9.898149796;-76.94105833;
I.E INICIAL 026;-9.89818943;-76.940912;
I.E VIREGEN DEL CARME;-9.89852881;-76.94359931;
PLAZA DE ARMAS HUALLANCA;-9.899272815;-76.94176644;
I.E RAUL CORDOVA ALVARADO;-9.900229267;-76.9399935;
COLISEO CERRADO - HUALLANCA;-9.901047048;-76.94108515;
IE. 86253 CELSO GARRO VALDERRAMA - PAMPAN - HUASTA - MR. CHIQUIAN;-10.11977543;-77.15744474;
IE. 86223 SATA MARIA - HUASTA - MR. CHIQUIAN;-10.12598394;-77.14806796;
PUESTO DE SALUD HUASTA;-10.12613028;-77.14806717;
LOCAL COMUNAL - QUERO - HUASTA - MR. CHIQUIAN;-10.1493141;-77.05952814;
PUESTO DE SALUD QUERO;-10.14932164;-77.06001475;
IE. VIRGEN PEREGRINA - POCPA - HUASTA - MR. CHIQUIAN;-10.19314016;-77.00316271;
P.S. HUAYLLACAYAN;-10.2445414;-77.4347885;
PUESTO DE SALUD HUAYLLACAYAN;-10.24454143;-77.43478846;
P.S. YUMPE;-10.2558039;-77.4812313;
PUESTO DE SALUD YUMPE;-10.25580391;-77.48123132;
PUESTO DE SALUD DE GORGORILLO;-10.3320206;-77.12432308;
PUESTO DE SALUD GORGORILLO;-10.33608859;-77.12589238;
PLAZA DE ARMAS DE MANGAS;-10.33615267;-77.12922335;
PUESTO DE SALUD MANGAS;-10.36741579;-77.10360623;
PUESTO DE SALUD LLAMAC;-10.19725784;-77.03093257;
LOCAL COMUNAL - LLAMAC - PACLLON - MR. CHIQUIAN;-10.19791035;-77.0315238;
PUESTO DE SALUD PACLLON;-10.21522866;-77.08122102;
IE. TUPAC AMARU - PACLLON - MR. CHIQUIAN;-10.23311227;-77.06847841;
PUESTO DE SALUD CORPANQUI;-10.28517152;-77.19839948;
IE Nº 86242 AGUSTIN DEXTRE CORDOBA - CORPANQUI;-10.28545433;-77.19893484;
PUESTO DE SALUD TICLLOS;-10.25279722;-77.19035274;
I.E. Señor de los Afligidos;-9.2537197;-77.6078791;
PUESTO DE SALUD PARIACACA;-9.25456235;-77.60584364;
PARIACACA BARRIO NUEVO;-9.254651833;-77.60582945;
"I.E.P. Nº 86293 ""Santa Úrsula""";-9.257116173;-77.61586135;
PUESTO DE SALUD HUALCAN;-9.25783667;-77.61465333;
HUALCAN;-9.25808821;-77.61582572;
TAMBO;-9.271298823;-77.56902859;
LOCAL COMUNAL DE ECASH;-9.27468189;-77.6601325;
CARAZBAMBA;-9.276079256;-77.57501311;
AMPU;-9.276916193;-77.65615997;
COSTADO DEL P.S. MAYA;-9.277302553;-77.6667361;
PUESTO DE SALUD MAYA;-9.27741409;-77.66674404;
HOSPITAL DE APOYO CARHUAZ;-9.27748394;-77.6493849;
COLISEO MULTIDEPORTIVO DE CARHUAZ;-9.277572895;-77.6453808;
MAYA BAJA;-9.278021566;-77.6749462;
CAJAMARQUILLA;-9.278284591;-77.64357136;
MERCADO CENTRAL - CARHUAZ;-9.278569787;-77.65109369;
"I.E. 86269 ""MARÍA AUXILIADORA"" - Carhuaz";-9.27857506;-77.64805402;
URANHUAY - CARHUAZ;-9.278614201;-77.63437692;
BARRIO EL TRIUNFO;-9.279864961;-77.64621184;
LAS FLORES;-9.280572813;-77.65094847;
PLAZA DE ARMAS -  CARHUAZ;-9.281109643;-77.64664843;
BARRIO SAN MARTIN;-9.281206997;-77.64391468;
COCHAPAMPA;-9.281641736;-77.59474248;
CENTRO MEDICO CARHUAZ;-9.28206823;-77.64705351;
5 ESQUINA;-9.282229436;-77.64131913;
ESTADIO MUNICIPAL DE CARHUAZ;-9.282318653;-77.6486902;
PUESTO SATÉLITE - COCHAPAMPA - CARHUAZ;-9.282362476;-77.59487532;
COPA CHICO;-9.282775872;-77.56298065;
BARRIO LA PAZ;-9.282819118;-77.6464586;
IDA TERRY;-9.283252235;-77.64841915;
POLICLINICO CRUZ VERDE;-9.28330143;-77.64725794;
CENTRO COMUNAL - CARAZBAMBA - CARHUAZ;-9.2845556;-77.57109926;
"I.E. ""Juan Velasco Alvarado"" 86763-Copa Chico-Carhuaz";-9.285211908;-77.5717268;
YANAMARCA;-9.288490892;-77.64133367;
CHUCCHUN;-9.291123538;-77.63745675;
RAMPAC GRANDE;-9.302765964;-77.64246465;
PUESTO DE SALUD RAMPAC GRANDE;-9.30291023;-77.64248572;
I.E. INCIAL Nº 395;-9.302974603;-77.64235621;
PONQUEZ;-9.318288356;-77.65994725;
TAURIPAMPA;-9.321246357;-77.67707051;
PUESTO DE SALUD TAURIPAMPA;-9.32132475;-77.67693868;
"POLICLINICO ""LA CASA DE LA SALUD""";-9.51826541;-77.52919896;
ACOPAMPA;-9.290608554;-77.62801006;
CENTRO DE SALUD ACOPAMPA;-9.290642;-77.6279502;
CENTRO DE SALUD ACOPAMPA;-9.29070333;-77.62816;
COMPLEJO DEPORTIVO;-9.293160276;-77.62544051;
I.E. RICARDO PALMA;-9.294982836;-77.62795812;
PLAZA DE ARMAS PUNYAN;-9.206707863;-77.63546964;
PUESTO DE SALUD PUNYAN;-9.20677671;-77.63665719;
LOZA DEPORTIVA AMASHCA;-9.238563017;-77.64885923;
PUESTO DE SALUD AMASHCA;-9.24044167;-77.648365;
PUESTO DE SALUD PURHUAY;-9.329499901;-77.62099386;
LOCAL COMUNAL HUACRAN - ANTA;-9.343124369;-77.61642377;
I.E. MARIO MAURO TORREZ MEZARINA;-9.357887561;-77.59996396;
CENTRO DE SALUD ANTA;-9.35820167;-77.59849;
COLEGIO FLAVIO VEGA VILLANUEVA;-9.360316429;-77.62329023;
PUESTO DE SALUD ATAQUERO;-9.259625;-77.70701;
ATAQUERO;-9.259785731;-77.70704261;
PLAZA DE ARMAS - CARHUAC - ATAQUERO;-9.262149079;-77.69161344;
PLAZA DE ARMAS - HUELLAP - ATAQUERO;-9.268937539;-77.7097641;
PUESTO DE SALUD COPA GRANDE;-9.289868142;-77.56151205;
COPA GRANDE;-9.29234796;-77.56207458;
C.P VICOS;-9.3194825;-77.5749189;
PLAZA DE ARMAS SHUMAY;-9.3224332;-77.6034894;
I.E PEDRO PABLO ATUSPARIA DE VICOS;-9.323963924;-77.55860286;
CENTRO DE SALUD MARCARA;-9.32649333;-77.60247833;
GRASS SINTETICO MARCARA;-9.327702335;-77.60178238;
PUESTO DE SALUD VICOS;-9.3282386;-77.55361704;
PURHUAY;-9.32937384;-77.62096459;
RECUAYHUANCA;-9.33985401;-77.55373351;
MUNICIPALIDAD DE RECUAYHUANCA;-9.340013514;-77.55448924;
PARIHUANCA;-9.36416667;-77.57695626;
LOZA DEPORTIVA DE PARIAHUANCA;-9.36433974;-77.57713133;
C.P PARIAHUNCA;-9.365146;-77.5805685;
PUESTO DE SALUD SAN MIGUEL  DE ACO;-9.36725914;-77.56555525;
I.E SAGRADO CORAZON DE JESUS SAN MIGUEL DE ACO;-9.367451737;-77.56586016;
LOZA DEPORTIVO BARRIO UNION - SHILLA;-9.097911663;-77.51356;
PUESTO DE SALUD SHILLA;-9.23735;-77.627685;
COLISEO CERRADO SHILLA;-9.244331094;-77.63028974;
TINCO;-9.26961395;-77.67839774;
PUESTO DE SALUD TINCO;-9.26969667;-77.67996167;
COLEGIO SANTIAGO ANTUNEZ DE MAYOLO;-9.376897462;-77.59197942;
CENTRO DE SALUD YUNGAR;-9.37949333;-77.59065;
MUNICIPALIDAD TRIGOPAMPA;-9.384349557;-77.60247222;
PUESTO DE SALUD TRIGOPAMPA;-9.38441423;-77.60319365;
MUNICIPALIDAD SANTA ROSA - YUNGAR;-9.388562461;-77.60702125;
PUESTO DE SALUD SANTA ROSA;-9.38934509;-77.60767086;
PUESTO DE SALUD POYOR;-9.39668767;-77.61597182;
LOZA DEPORTIVA  POYOR - YUNGAR;-9.397199811;-77.61560432;
UCHUSQUILLO;-9.0121658;-77.3505306;
PUESTO DE SALUD UCHUSQUILLO;-9.01304515;-77.35138528;
PUESTO DE SALUD HUMANHUAUCO;-9.02680561;-77.34955991;
HUMANHUAUCO;-9.0273758;-77.3504042;
PUESTO DE SALUD POMALLUCAY;-9.04883456;-77.35016422;
POMALLUCAY;-9.0528858;-77.3259812;
CANCHABAMBA;-9.080068259;-77.28564723;
PUESTO DE SALUD CANCHABAMBA;-9.0805489;-77.28446169;
San Luis;-9.09245076;-77.32907073;
CENTRO DE SALUD SAN LUIS;-9.09554831;-77.33039351;
AUDITORIO DE LA MUNICIPALIDAD DE SAN LUIS;-9.0956187;-77.328135;
CANCHA SINTETICA DE SAN LUIS;-9.0956187;-77.328135;
SAN LUIS;-9.0956187;-77.328135;
SAN NICOLAS;-8.9777577;-77.1894908;
CENTRO DE SALUD SAN NICOLAS;-8.98064624;-77.1851262;
PUESTO DE SALUD RURISH;-9.00536922;-77.16430239;
PUESTO DE SALUD LLAMACA;-9.06634997;-77.1805588;
PUESTO DE SALUD SAN FRANCISCO;-8.9644623;-77.24122663;
PUESTO DE SALUD CHINCHO;-8.96839946;-77.31596384;
CHINCHO;-8.968508;-77.3168273;
PUESTO DE SALUD SAN MIGUEL DE JUNCAY;-8.97060031;-77.25570769;
CENTRO DE SALUD YAUYA;-8.98645108;-77.2913488;
YAUYA;-8.9908029;-77.291522;
PUESTO DE SALUD TAMBO REAL;-9.02105819;-77.26993722;
LOCAL COMUNAL DE VILLA HERMOSA;-9.4561566;-78.2945855;
COLEGIO PABLO SEXTO;-9.4593738;-78.2965998;
ASILO SAN JOSÉ;-9.4686879;-78.3154982;
IE SANTA ISABEL DE HUNGRIA;-9.4698815;-78.3038368;
CENTRO MEDICO CASMA;-9.4729169;-78.310071;
PS SAN RAFAEL;-9.473953;-78.2972034;
HA CASMA;-9.4739706;-78.3049805;
HOSPITAL DE APOYO CASMA;-9.47397062;-78.30498052;
COMPLEJO MUNICIPAL DEPORTIVO CASMA;-9.4740505;-78.3018764;
IE MARISCAL LUZURIAGA;-9.4740972;-78.294416;
IE 88101 CESAR ABRAHAM VALLEJO MENDOZA;-9.4752935;-78.2978741;
IE CESAR ABRAHAM VALLEJO MENDOZA;-9.4755031;-78.2970285;
PS CASA BLANCA;-9.49731;-78.21111;
PUESTO DE SALUD CASA BLANCA;-9.51444906;-78.12017926;
PUESTO DE SALUD SAN RAFAEL;-9.5652331;-78.18937702;
PS LA GRAMITA;-9.7179481;-78.2935264;
PUESTO DE SALUD LA GRAMITA;-9.7183495;-78.29332763;
LOCAL COMUNAL DE CUNCA;-9.339205;-78.1256194;
LOCAL COMUNAL DE YANACACA GRANDE;-9.339205;-78.1256194;
IE 88137 FRANCISCO BOLOGNESI;-9.3392059;-78.1256193;
PS HUANCHUY;-9.3601313;-78.152168;
PUESTO DE SALUD HUANCHUY;-9.36013132;-78.152168;
IE 88111 JOSE FAUSTINO SANCHEZ CARRION;-9.3610855;-78.1541329;
PUESTO DE SALUD EL OLIVAR;-9.3897873;-78.1768673;
PS EL OLIVAR;-9.39217;-78.17881;
IE 88110 NUESTRA SEÑORA DE FATIMA;-9.4323297;-78.2065794;
PS BUENAVISTA;-9.4323325;-78.2068628;
CENTRO DE SALUD BUENAVISTA;-9.43233254;-78.20686282;
PS TORTUGAS;-9.3634901;-78.407627;
PUESTO DE SALUD TORTUGAS;-9.36569614;-78.40740485;
PS COMANDANTE NOEL;-9.459;-78.382;
PUESTO DE SALUD COMANDANTE NOEL;-9.46343191;-78.37256258;
TOMEQUE Y CAPOSO;-9.4566667;-78.0441667;
IE 88289;-9.478072;-77.9287106;
IE 88311 JOSE GALVEZ EGUSQUIZA;-9.4859714;-77.9766177;
IE 88128 ALFONSO UGARTE;-9.4859714;-77.9766177;
IE AGROPECUARIO YAUTAN;-9.5101851;-77.9951381;
NUEVO KAQUI;-9.5119167;-77.9968719;
CS YAUTAN;-9.5119592;-77.9967863;
CENTRO DE SALUD YAUTAN;-9.51195923;-77.99678631;
PUESTO DE SALUD CACHIPAMPA;-9.51616776;-78.05044862;
PS CACHIPAMPA;-9.5161678;-78.0504486;
IE 88127 SAN PEDRO - CORONGO;-8.567999031;-77.89686188;
CENTRO DE SALUD CORONGO;-8.572825;-77.89627667;
LOCAL MUNICIPAL DE ACO;-8.522984578;-77.87728854;
PUESTO DE SALUD ACO;-8.52366593;-77.87439055;
LOCAL MUNICIPAL DE BAMBAS;-8.602367357;-77.99717241;
PUESTO DE SALUD BAMBAS;-8.60303;-77.99404667;
PUESTO DE SALUD CUSCA;-8.51271034;-77.86450427;
I.E  JORGE BASADRE  GROHMANN - CUSCA;-8.513531775;-77.86378541;
PUESTO DE SALUD ANTONIO RAYMONDI HUALLCALLANCA;-8.55643312;-77.79898063;
CAMPO DEPORTIVO URCON;-8.5748502;-77.7891714;
Patio del Establecimiento Hualcallanca;-8.5749823;-77.787045;
PUESTO DE SALUD URCON;-8.5751983;-77.79055011;
PUESTO DE SALUD TARICA;-8.60199028;-77.75340278;
PATIO EXTERNO DEL P.S. TARICA;-8.6023554;-77.7528973;
PUESTO DE SALUD LA PAMPA;-8.660595;-77.902315;
I.E SANTIAGO ANTUNEZ DE MAYOLO - LA PAMPA;-8.660666344;-77.90168351;
PUESTO DE SALUD YANAC;-8.61843156;-77.86459898;
CAMPO DEPORTIVO DE YANAC;-8.6189373;-77.8637387;
LOCAL MUNICIPAL DE  YUPAN;-8.615357521;-77.96903069;
PUESTO DE SALUD YUPAN;-8.61687833;-77.96746;
PUESTO DE SALUD II DE HUAMPARAN;-9.25956025;-77.17255344;
PUESTO DE SALUD COLCAS;-9.32081957;-77.16875432;
HOSPITAL DE APOYO HUARI;-9.34198474;-77.16777014;
CENTRO DE SALUD MENTAL COMUNITARIO HAMPICAMAYOC;-9.347409;-77.171603;
CENTRO MEDICO HUARI;-9.3487267;-77.1719265;
I.E. Manuel Gonzales Prada;-9.3506506;-77.1724212;
Institucion Educatva Virgen De Fatima;-9.35157;-77.1767;
PUESTO DE SALUD YACYA;-9.38011695;-77.17203629;
PUESTO DE MALLAS;-9.4016706;-77.19524258;
PUESTO DE SALUD ANRA;-9.23001945;-76.9284601;
Loza deportiva Cajay;-9.244265;-77.1255055;
PUESTO DE SALUD QUERORACRA;-9.29090827;-77.07361367;
PUESTO DE SALUD CAJAY;-9.32134818;-77.15819682;
PUESTO DE SALUD CHACPAR;-9.57670727;-77.21385761;
PUESTO DE SALUD CHICHUCANCHA;-9.57864159;-77.22972841;
CENTRO DE SALUD CHAVIN;-9.58596713;-77.17770317;
Coliseo cerrado de Chavín;-9.589795;-77.1765813;
PUESTO DE  SALUD MACHAC;-9.63850054;-77.20407818;
PUESTO DE SALUD HUACACHI;-9.31458254;-76.93835721;
PUESTO DE SALUD YANAS;-9.15836587;-76.79997447;
PUESTO DE SALUD HUACCHIS;-9.20155426;-76.78759809;
PUESTO DE SALUD CHUPAN;-9.37314352;-77.05376152;
PUESTO DE SALUD  HUACHIS;-9.40590343;-77.09801362;
PUESTO DE SALUD HUANTAR;-9.45229248;-77.17571961;
PUESTO DE SALUD CHUCOS;-9.4796956;-77.17830767;
PUESTO DE SALUD ACCHAS;-9.32410769;-77.04836295;
PUESTO DE SALUD MASIN;-9.36702785;-77.09914375;
PUESTO DE SALUD VISCAS;-9.14658938;-76.84029602;
PUESTO DE SALUD PAUCAS;-9.15234103;-76.90108508;
PUESTO DE SALUD  SAN MIGUEL DE PONTO;-9.31261701;-76.97261267;
PUESTO DE SALUD PONTO;-9.32607892;-77.00573668;
PUESTO DE SALUD CONIN;-9.35632604;-77.01709642;
PUESTO DE SALUD YUNGUILLA;-9.27523641;-76.99941423;
CENTRO DE SALUD RAHUAPAMPA;-9.36005443;-77.07903375;
PUESTO DE SALUD RAPAYAN;-9.20449399;-76.76282336;
PUESTO DE SALUD HUARIPAMPA;-9.5042624;-77.14666037;
PUESTO DE SALUD AYASH DE HUARIPAMPA;-9.52275;-77.019385;
I.E. N°86380 San Marcos;-9.5274221;-77.1587526;
CENTRO DE SALUD SAN MARCOS;-9.5279353;-77.15827296;
PUESTO DE SALUD CARHUAYACO;-9.52975496;-77.12291459;
PUESTO DE SALUD CHALHUAYACO;-9.62213369;-77.17580249;
PUESTO DE SALUD SAN PEDRO DE PICHIU;-9.6665898;-77.17660485;
PUESTO DE SALUD SAN PEDRO DE CHANA;-9.39880851;-77.00993013;
PUESTO DE SALUD VICHON;-9.43635763;-77.02248535;
PUESTO DE SALUD SANTA CRUZ DE PICHIU;-9.4941124;-77.01058844;
C.S. UCO;-9.1867823;-76.9302446;
PUESTO DE SALUD UCO;-9.18705614;-76.93040157;
PS HUAMBA;-9.9652001;-77.8569118;
PUESTO DE SALUD HUAMBA;-9.96520013;-77.85691182;
IE SANTA ROSA;-10.0535963;-78.1560087;
PUESTO DE SALUD LA VICTORIA;-10.0554619;-78.15981442;
PS LA VICTORIA;-10.0554619;-78.1598144;
IE INCA GARCILASO DE LA VEGA;-10.0654277;-78.1496734;
IE GERONIMUS'S COLLEGE;-10.0656142;-78.1475443;
HA HUARMEY;-10.0678733;-78.1555521;
HOSPITAL DE APOYO HUARMEY;-10.06808931;-78.15571838;
COLISEO MARIANO LOO GRANDA;-10.0713921;-78.1554634;
IE 86056 DANIEL ALCIDES CARRION;-10.0713921;-78.1554634;
PUESTO DE SALUD PUERTO HUARMEY;-10.09821629;-78.16181262;
PS PUERTO HUARMEY;-10.0982163;-78.1618126;
PUESTO DE SALUD COCHAPETI;-9.98571833;-77.645025;
TEATRO MUNICIPAL DE COCHAPETI;-9.987416639;-77.64629772;
PUESTO DE SALUD QUIAN;-9.77374533;-77.94948745;
PS QUIAN;-9.7803;-77.9655;
PS EL MOLINO;-9.8815711;-78.1140359;
PUESTO DE SALUD MOLINO;-9.88182052;-78.11469075;
PS CULEBRAS;-9.9500478;-78.2218743;
PUESTO DE SALUD CULEBRAS;-9.95004783;-78.22187428;
IE 88109 ALFONSO UGARTE;-9.9501494;-78.221974;
PS HUAYAN;-9.87535;-77.71037;
PUESTO DE SALUD HUAYAN;-9.87585651;-77.70783871;
IE 86156 VIRGEN INMACULADA CONCEPCION;-9.8766062;-77.7082679;
IE 86157 CESAR VALLEJO;-9.959619;-77.849338;
PUESTO DE SALUD MALVAS;-9.9262676;-77.65787793;
PS MALVAS;-9.93039;-77.66053;
LOZA DEPORTIVA MALVAS;-9.9304279;-77.6579077;
PUESTO DE SALUD SAN MIGUEL;-9.94515865;-77.74695361;
PS SAN MIGUEL;-9.9452441;-77.7476485;
IE 86142 SABIO SANTIAGO ANTUNEZ DE MAYOLO;-9.9453293;-77.7472042;
PUESTO DE SALUD COCHAMARCA;-8.99097833;-77.800445;
SAN ISIDRO N° 86479 COCHAMARCA;-8.991160781;-77.8008183;
PUESTO DE SALUD PAMPACOCHA;-8.999157457;-77.78162173;
PUESTO DE SALUD PAMPACOCHA;-8.99916;-77.78162;
CELSO VICTOR TORRES FIGUEROA;-9.002582185;-77.80750773;
SARITA COLONIA N° 86848;-9.015877725;-77.79138098;
PUESTO DE SALUD YURACOTO;-9.01609167;-77.82047167;
LOZA DEPORTIVA LA PICHANGUITA;-9.025313016;-77.82087066;
EL TAMBO HUAUYA;-9.030912614;-77.77614812;
PUESTO DE SALUD HUAUYA;-9.03105;-77.77618167;
I.E. DE PARON Nº 86847;-9.031073538;-77.77704666;
LOZA DEPORTIVA DE ANTASH;-9.031105326;-77.77506719;
LAS CHULLPAS;-9.036705196;-77.82028459;
CAMPO DEPORTIVO CHOSICA;-9.042910435;-77.77793626;
"Instituto Superior Tecnológico ""Daniel Villar""";-9.0430939;-77.8091193;
HOSPITAL DE APOYO CARAZ;-9.04451173;-77.80641228;
I.E.I. 260 NUESTRA SEÑORA DE LAS MERCEDES - CARAZ;-9.0469335;-77.8121515;
CENTRO MEDICO CARAZ;-9.0477271;-77.8104209;
I.E. 86473 MICELINO SANDOVAL TORRES;-9.048145262;-77.80625262;
PLAZA DE ARMAS CARAZ;-9.048311533;-77.81005616;
MUNICIPALIDAD DEL CENTRO POBLADO DE LLACSHU;-9.048674334;-77.75416116;
"CENTRO DE AISLAMIENTO TEMPORAL ""DULZURA""";-9.04966;-77.812145;
LOCAL COMUNAL DE HUANDOY;-9.050284818;-77.73931245;
PUESTO DE SALUD LLACSHU;-9.05032167;-77.75126333;
CAMPO DEL CPVC DE OCORACRA;-9.050454342;-77.74360398;
CAMPO DEPORTIVO DE TICRAPA;-9.056896205;-77.76051263;
I. E. FRAY MARTIN DE PORRAS Nº 86478;-9.062629875;-77.8414502;
PUESTO DE SALUD PAVAS;-9.06275833;-77.84249667;
PUESTO DE SALUD CALLHUASH;-8.723155;-77.98351833;
CAMPO DEPORTIVO DE COLCAP;-8.7329061;-77.9362478;
I.E.SANTO TORIBIO DE MOGROBEJO;-8.7447402;-77.9271008;
PUESTO DE SALUD COLCAP;-8.752385;-77.95995333;
ESTADIO DE GIBRALTAR;-8.7943766;-77.9053182;
CENTRO DE SALUD HUALLANCA;-8.81889394;-77.86285972;
COLEGIO LUIS TORRES SALAZAR N° 86499;-9.016015556;-77.86489373;
PLAZA DE ARMAS - HUATA;-9.016366096;-77.86131484;
PUESTO DE SALUD HUATA;-9.01701167;-77.86511;
PUESTO DE SALUD RACRACALLAN;-9.03323167;-77.88681333;
COLEGIO VIRGEN DE LAS MERCEDES N° 86500;-9.033848071;-77.88690505;
I.E 86484 EMILIANO HARO COLLAS;-8.8698079;-77.8905067;
PUESTO DE SALUD HUAYLAS;-8.871505;-77.89832167;
COLEGIO LUZ DEL SABER N° 86494;-8.941007341;-77.87912553;
CENTRO DE SALUD MATO;-8.96031;-77.839335;
COLEGIO JOSE STRAUSSBERGER N° 86492;-8.960921319;-77.84092551;
COLEGIO N° 86531 CASERIO HUINO;-8.966069207;-77.86356067;
COLEGIO SAN JUAN BOSCO N° 86493;-8.966564073;-77.90770826;
PUESTO DE SALUD ANCORACA;-8.96814667;-77.91074167;
COLEGIO GERMAN MORESLES MENDOZA N° 86735;-8.973781051;-77.88519648;
PUESTO DE SALUD PAMPAP;-9.04635543;-77.9727696;
CENTRO DE SALUD PAMPAROMAS;-9.07286864;-77.98197618;
LOZA DEPORTIVA DE PAMPAROMAS;-9.0730649;-77.9812321;
I.E N° 86546 SAN PEDRO DE PAMPAP;-9.0730649;-77.9812321;
I.E N° 86504 ANDRES PASCUAL;-9.0730649;-77.9812321;
I.E N°86549 DORA RIVERA PACHECO;-9.0730649;-77.9812321;
I.E N° 86732 CAJABAMBA BAJA;-9.0730649;-77.9812321;
PUESTO DE SALUD ULLPAN;-9.1021194;-78.04172559;
PUESTO DE SALUD CHACLANCAYO;-9.11020969;-77.96798272;
PUESTO DE SALUD CAJABAMBA BAJA;-9.11566391;-77.9281427;
PUESTO DE SALUD CHUNYA;-9.15858586;-77.97474572;
I.E.DAVID ELWIN JHONNSON MILLER;-9.159390388;-77.97524499;
I.E.JOSE MARIA VELAZ 86548;-9.211500697;-77.9645321;
PUESTO DE SALUD PICHIU;-9.2115215;-77.96541346;
PUESTO DE SALUD PISHA;-9.2197976;-77.92375972;
TAMBO-PISHA;-9.222964831;-77.92944;
CENTRO DE SALUD PUEBLO LIBRE;-9.09867391;-77.80305379;
COMPLEJO DEPORTIVO DE CATUCANCHA;-9.099591672;-77.79831498;
PUESTO DE SALUD SAN JUAN;-9.10971234;-77.80282479;
I.E. SAN JUAN;-9.111795536;-77.79951661;
PUESTO DE SALUD HUAMANCAYAN;-9.12403483;-77.82165054;
CENTRO DE VIGILANCIA HUAMANCAYAN;-9.125071448;-77.82230583;
PUESTO DE SALUD CARHUA;-9.1494419;-77.80808715;
I.E. CARHUA;-9.149508878;-77.80808895;
I.E. CARHUA;-9.1500994;-77.80930131;
I.E. INICIAL HUANAYO;-9.174393656;-77.79565834;
PUESTO DE SALUD HUANAYO;-9.17552585;-77.79767837;
FRONTIS P.S. ACOYO;-9.187697888;-77.80350166;
PUESTO DE SALUD VIRGEN INMACULADA DEL CENTRO POBLADO DE ACOYO;-9.19194738;-77.80514865;
COLEGIO N° 87009 CASERIO HUALCAYAN;-8.896952146;-77.80199325;
COLEGIO DIVINO MAESTRO N° 86807 CASERIO CARANCA;-8.916394216;-77.81550353;
COLEGIO VIRGEN DE LA ASUNCION N° 86771;-8.920847402;-77.8406128;
PUESTO DE SALUD COLCAS;-8.92178167;-77.84143;
MANUEL ASUNCION HUAMAN CORZO N° 86772;-8.931887828;-77.79117472;
CONAY N° 86555;-8.948788442;-77.78489567;
PLAZUELA DE CONAY;-8.948817588;-77.78493054;
AMADEO GADEA LANDAVERY;-8.949969053;-77.81407174;
PLAZA DE ARMAS;-8.951654236;-77.81483985;
PLAZA DE ARMAS HUARIPAMPA;-8.951670723;-77.8148308;
CENTRO DE SALUD HUARIPAMPA;-8.951903293;-77.8143195;
CENTRO DE SALUD HUARIPAMPA;-8.95191167;-77.81433333;
PUESTO DE SALUD SANTA CRUZ;-8.96532833;-77.79613833;
TAMBO SANTA CRUZ N° 260614;-8.966302941;-77.79796071;
I.E 86487 SIMON BOLIVAR PALACIOS;-8.8459788;-77.9231112;
PUESTO DE SALUD ISCAP;-8.84612167;-77.92413333;
PUESTO DE SALUD SANTO TORIBIO;-8.86444;-77.91852;
I.E 86486 VICTOR FLORES CORTEZ;-8.865567;-77.9136872;
I.E. DANIEL ALCIDES CARRION;-8.734526;-77.8885052;
PUESTO DE SALUD SANTA ROSA;-8.73453744;-77.88945525;
CAMPO DEPORTIVO DE NUEVA ESPERANZA;-8.7374027;-77.9039796;
PUESTO DE SALUD YURACMARCA;-8.7448;-77.89925167;
PUESTO DE SALUD QUITARACZA;-8.7753741;-77.74413013;
CAMPO DEPORTIVO MARIANO MELGAR;-8.8045243;-77.8540397;
PLAZA DE ARMAS DE PISCOBAMBA;-8.8513671;-77.3439283;
POSTA MEDICA PISCOBAMBA;-8.86337519;-77.3587538;
CESAR EGUSQUIZA DURAND Nº 84025;-8.8639537;-77.3623123;
CENTRO DE SALUD PISCOBAMBA;-8.86597717;-77.35324609;
PLAZA DE ARMAS  DE MUSGA;-8.8667621;-77.3597194;
PISCOBAMBA;-8.8667621;-77.3597194;
PUESTO SALUD SOCOSBAMBA;-8.867886991;-77.37548863;
CENTRO SALUD PISCOBAMBA;-8.884169133;-77.35626256;
PUESTO DE SALUD SOCOSBAMBA;-8.8884747;-77.3625903;
SOCOSBAMBA;-8.8907904;-77.3634699;
PUESTO DE SALUD SOCOSBAMBA;-8.89188665;-77.362922;
PUESTO DE SALUD CASCA;-8.85614051;-77.39805931;
PUESTO DE SALUD PUMPA;-8.88743849;-77.2060032;
PAMPACHACRA;-8.897282745;-77.24611763;
PUESTO DE SALUD PAMPACHACRA;-8.89879237;-77.2465663;
CAMPO DEPORTIVO DE PUMPA;-8.9010381;-77.2175223;
Pumpa;-8.9010381;-77.2175223;
CAMPO DEPORTIVO DE PAMPACHACRA;-8.9013875;-77.2461263;
PLAZA DE ARMAS DE LLUMPA;-8.902328;-77.243793;
PARCO;-8.768321712;-77.30401873;
PUESTO DE SALUD PARCO;-8.7701455;-77.3039329;
CAMPO DEPORTIVO DE PARCO;-8.7701455;-77.3039329;
PUESTO DE SALUD PARCO;-8.7705296;-77.30533078;
PUESTO DE SALUD SANASHGAN;-8.80434354;-77.27883161;
PUESTO DE SALUD SANACHGAN;-8.80591;-77.281409;
LOZA DEPORTIVA DE SANACHGAN;-8.80591;-77.281409;
SANACHGAN;-8.80591;-77.281409;
PUESTO DE SALUD LLAMA;-8.91434573;-77.30110763;
PUESTO DE SALUD LLAMA;-8.9146292;-77.2979782;
PUESTO DE SALUD LLUMPA;-8.96051286;-77.36874997;
LLUMPA;-8.9611539;-77.3672971;
CAMPO DEPORTIVO LLUMPA;-8.9634202;-77.4587239;
PUESTO DE SALUD LLUYCHOCOLPAN;-8.971785;-77.47675;
I.E.P PADRE HUGO DE CENSI;-8.975923433;-77.43180107;
I.E.P JUAN PABLO II DE LLUYCHOCOLPAN;-8.976821545;-77.47316074;
I.E.P JOSE CARLOS MARIATEGUI;-8.98837963;-77.46030109;
I.E.P JORGE CHAVEZ DE CHINGUIL;-8.989042819;-77.49785852;
PUESTO DE SALUD YURMA;-8.98969167;-77.45960333;
PUESTO DE SALUD LUCMA;-8.91551321;-77.4128389;
PUESTO DE SALUD SECCHA;-8.91709666;-77.44644685;
P. S. MASQUI;-8.92249999;-77.38811958;
complejo deportivo de la municipalidad de musga;-8.8997984;-77.3381855;
MUSGA;-8.8997984;-77.3381855;
PUESTO DE SALUD MUSGA;-8.90685223;-77.34321689;
COLEGIO VIRGEN DEL ROSARIO 20498 OCROS;-10.40318409;-77.39841911;
PUESTO DE SALUD OCROS;-10.40471684;-77.39904499;
MUNICIPALIDAD DISTRITAL DE CARHUAPAMPA;-10.49711775;-77.24688059;
PLAZA DE ARMAS DEL CENTRO POBLADO LLAMACHUPAN;-10.45605834;-77.32603627;
ACAS;-10.45670986;-77.32556462;
puesto de salud Acas;-10.4567099;-77.3255646;
CENTRO SIVICO DE CAJAMARQUILLA_ OCROS;-10.35235595;-77.19964766;
PUESTO DE SALUD CAJAMARQUILLA;-10.35382;-77.19864333;
PUESTO DE SALUD ACO DE CARHUAPAMPA;-10.50204333;-77.24415;
MUNICIPALIDAD DISTRITAL DE COCHAS;-10.52921953;-77.42188936;
PUESTO DE SALUD HUANCHAY;-10.53384;-77.42271833;
PUESTO DE SALUD CONGAS;-10.33552;-77.44004667;
PLAZA DE ARMAS DEL DISTRITO DE CONGAS;-10.3376864;-77.44071926;
PUESTO DE SALUD LLIPA;-10.39156167;-77.191855;
LOCAL MUNICIPALIDAD DE LLIPA;-10.39323006;-77.19362265;
PLAZA DEL DISTRO DE SAN CRISTOBAL DE RAJAN;-10.38650717;-77.21928969;
PUESTO DE SALUD RAJAN;-10.38680167;-77.22067667;
PUESTO DE SALUD SAN PEDRO DE COPA;-10.37147324;-77.48575436;
LOCAL COMUNAL DEL DISTRITO DE SAN PEDRO DE COPA;-10.37246525;-77.48724983;
PUESTO DE SALUD CHILCAS;-10.43743551;-77.36631274;
PUESTO DE SALUD SAN SANTIAGO DE CHILCAS;-10.43945716;-77.36894282;
LOZA DEPORTIVA SANTA ROSA;-8.364006338;-78.004029;
LOZA DEPORTIVA CABANA;-8.393295901;-78.00907826;
POSTA MEDICA CABANA;-8.3944043;-78.006695;
CENTRO DE SALUD CABANA;-8.39564896;-78.00511286;
PUESTO DE SALUD BOLOGNESI;-8.35132524;-78.05000211;
PUESTO DE SALUD FERRER;-8.35679727;-78.01881345;
COLEGIO CHALAN;-8.185220408;-77.68302075;
PUESTO DE SALUD CHALAN;-8.18578058;-77.68414836;
PUESTO DE SALUD HUATAULLO;-8.20083573;-77.60650858;
Losa deportiva huataullo;-8.20098505;-77.60673778;
CENTRO DE SALUD CONCHUCOS;-8.26444022;-77.85198442;
MONTEGRANDE;-8.264464538;-77.85551658;
CASERIO TANDAR;-8.267182588;-77.85002342;
PUESTO DE SALUD MAYAS;-8.27489885;-77.66860054;
PUESTO DE SALUD HUACASCHUQUE;-8.30625612;-78.00507775;
Caserío santa Ana;-8.317484785;-77.90142264;
PUESTO DE SALUD HUANDOVAL;-8.3297298;-77.97607032;
Caserío cruz pampa;-8.36797116;-77.97273722;
MORAYPAMPA;-8.372047151;-77.96518412;
Caserio San jose;-8.382003429;-77.97835913;
PUESTO DE SALUD LACABAMBA;-8.25931624;-77.89902352;
MORAYPAMPA;-8.269619261;-77.85315087;
LACABAMBA I.E. 88161;-8.276048936;-77.85557248;
PUESTO DE SALUD LLAPO;-8.51496633;-78.04260894;
CENTRO DE SALUD PALLASCA;-8.25103456;-77.99988877;
PUESTO DE SALUD UCHUPAMPA;-8.07536988;-77.66629956;
UCHUPAMPA;-8.075379424;-77.66626951;
PUESTO DE SALUD MONGON;-8.11825372;-77.65339423;
MONGON;-8.119128502;-77.6537567;
CASERIO DE JONGOS;-8.130597248;-77.78675749;
PUESTO DE SALUD PUYALLI;-8.16705188;-77.92102621;
PUYALLI;-8.172302485;-77.92076122;
CC.PP. PELAGATOS;-8.175091424;-77.80742123;
CC.PP. CONSUZO;-8.175222514;-77.84966754;
C.P. PARAGON;-8.177080976;-77.83885823;
LOZA DEPORTIVA PAMPAS;-8.193810492;-77.89361056;
CENTRO DE SALUD PAMPAS;-8.19400779;-77.89265982;
PUESTO DE SALUD PAMPAS;-8.194010931;-77.89276835;
PARAGON;-8.195700725;-77.89612111;
PELAGATOS;-8.195849395;-77.8987604;
CC.PPP. TILACO;-8.234316357;-77.88330092;
CC.PP. COCHACONCHUCOS;-8.243731972;-77.88306495;
CC.PP. ANCOS;-8.490159178;-78.09289829;
PUESTO DE SALUD SANTA ROSA;-8.52645658;-78.0689071;
PUESTO DE SALUD HUALALAY;-8.42147593;-78.02648984;
LOZA DEPORTIVA DE TAUCA;-8.470184998;-78.03750772;
PUESTO DE SALUD TAUCA;-8.47047124;-78.03815626;
PUESTO DE SALUD CHOGO;-8.70521293;-77.45184947;
PUESTO DE SALUD CONOPA;-8.79004952;-77.51697327;
PUESTO SALUD DE CONOPA;-8.7901131;-77.5168809;
PUESTO DE SALUD  SOCSI;-8.802751216;-77.54028356;
PUESTO DE SALUD VILCABAMBA;-8.802751216;-77.46612584;
PUESTO DE SALUD SOCSI;-8.80691216;-77.47282663;
PUESTO DE SALUD CHUYAS;-8.810893817;-77.53204381;
"HOSPITAL DE APOYO DE POMABAMBA "" ANTONIO CALDAS DOMINGUEZ""";-8.81402076;-77.4641063;
PUESTO DE SALUD JANCAPAMPA;-8.816322118;-77.4578861;
PUESTO SALUD CHOGO;-8.819036238;-77.54028356;
Plaza de Armas de Pomabamba;-8.8205485;-77.4602544;
PUESTO DE SALUD CHUYAS;-8.82082724;-77.48180674;
I.E. VIRGEN DEL SOCORRO;-8.824605213;-77.51954588;
PUESTO DE SALUD VILCABAMBA;-8.8276368;-77.4223158;
PUESTO DE SALUD JANCAPAMPA;-8.84998151;-77.52036189;
PUESTO DE SALUD HUAYLLAN;-8.84999763;-77.43869315;
PUESTO DE SALUD ACOBAMBA;-8.86342898;-77.42493459;
PUESTO DE SALUD HUAYCHO;-8.90024699;-77.40423133;
PUESTO DE SALUD HUANCHAYLLO;-8.5877444;-77.33343235;
PUESTO DE SALUD CHANGA;-8.59202737;-77.38042829;
PUESTO DE SALUD SHUMPILLAN;-8.59723218;-77.32515695;
PUESTO DE SALUD CAJAS;-8.62334745;-77.48189525;
PUESTO DE SALUD PAROBAMBA NUEVO;-8.67952142;-77.4112463;
Escuela 84019 Alfonso Ponte Gonzales;-8.69402;-77.43195;
I.E N° 84018 PAROBAMBA NUEVO;-8.696881157;-77.41806066;
CENTRO DE SALUD PAROBAMBA VIEJO;-8.6969451;-77.42655666;
YAMIAN;-8.68712223;-77.28613905;
I.E. N° 84016- LEONCIO ASUNCION ROCA PONTE;-8.7002777;-77.3439283;
PUESTO DE SALUD QUINUABAMBA;-8.7006331;-77.39953969;
PLAZA CANRRAY CHICO - RECUAY;-9.6689067;-77.4565342;
PUESTO DE SALUD COLLAHUASI;-9.671135;-77.48586167;
MUNICIPALIDAD DE CENTRO POBLADO DE COLLAHUASI;-9.671730568;-77.485638;
PLAZA PARIAPATA - RECUAY;-9.6785751;-77.467329;
CANTU - RECUAY;-9.6785751;-77.467329;
IGLESIA TUCTU - RECUAY;-9.7048448;-77.4576027;
COLISEO CERRADO DE RECUAY;-9.7231582;-77.4544211;
HOSPITAL DE APOYO RECUAY;-9.72803333;-77.453195;
CENTRO DE SALUD CATAC;-9.80043694;-77.43171373;
COAR - CATAC;-9.808968996;-77.42579368;
PUESTO SALUD PAMPA DE LAMPAS;-10.05848267;-77.27385949;
TEATRO MUNICIPAL DE COTAPARACO;-9.993340309;-77.58798247;
PUESTO DE SALUD COTAPARACO;-9.99442833;-77.587065;
LOZA DEPORTIVA DE HUAYLLAPAMPA;-10.04905053;-77.53200342;
C.P CHICNCHIPE ( HUAYLLAPAMPA);-10.05163591;-77.52709634;
C.P PITEC (HUAYLLAPAMPA);-10.05163591;-77.53808267;
PUESTO DE SALUD HUAYLLAPAMPA;-10.056005;-77.535696;
PUESTO DE SALUD LLACLLIN;-10.05823946;-77.62320997;
SAN PEDRO DE LLACLLIN;-10.06967472;-77.62217464;
PUESTO DE SALUD LLACLLIN;-10.07042757;-77.62074823;
P.S CHAUCAYAN;-10.1854501;-77.5551312;
PUESTO DE SALUD CHAUCAYAN;-10.18545013;-77.5551312;
EDUARDO AUGUSTO BUSTAMANTE ALVARADO N°86580;-10.18859122;-77.55664455;
C.P COLINA (MARCA);-10.07186895;-77.48582989;
MUNICIPALIDAD DE MARCA;-10.0753683;-77.48622006;
C.P ICHOCA (MARCA);-10.08910812;-77.47484356;
PUESTO DE SALUD MARCA;-10.089685;-77.47465667;
PAMPAS CHICO (CERCA AL P.S);-10.07969456;-77.373883;
LOCAL DEL CENTRO POBLADO MAYORARCA;-10.08279628;-77.37613803;
MUNICIPALIDAD DE PAMPAS CHICO;-10.08854257;-77.36927157;
C.P HUAMBO (MAYORARCA);-10.0927082;-77.37336802;
PUESTO DE SALUD PAMPAS CHICO;-10.11545;-77.40082;
PUESTO DE SALUD MAYORARCA;-10.15222333;-77.35574333;
PUESTO DE SALUD PARARIN;-10.05129198;-77.65569158;
P.S. PARARIN;-10.051292;-77.6556916;
AUDITORIUM DE LA MUNICIPALIDAD DE TAPACOCHA;-10.00989422;-77.56950473;
PUESTO DE SALUD TAPACOCHA;-10.01032333;-77.57041667;
PUESTO DE SALUD TICAPAMPA;-9.75783833;-77.44356667;
ESTADIO MUNICIPAL DE TICAPAMPA;-9.758141992;-77.44271105;
PUESTO DE SALUD CAYAC;-9.77226667;-77.44094;
LOZA DEPORTIVA CAYAC;-9.772711555;-77.44039142;
PUESTO DE SALUD VINZOS;-8.801769981;-78.55159288;
P.S. LUPAHUARY;-8.867369777;-78.28307251;
PUESTO DE SALUD LUPAHUARI;-8.87030508;-78.26796167;
PUESTO DE SALUD RINCONADA;-8.893321714;-78.56669372;
PUESTO DE SALUD CASCAJAL;-8.90842214;-78.52751106;
P.S. CASCAJAL;-8.908810883;-78.52750158;
P.S. 14 INCAS;-8.943976193;-78.51707722;
PUESTO DE SALUD 14 INCAS;-8.94403612;-78.5170778;
PUESTO DE SALUD ALTO PERU;-8.949674136;-78.58001414;
PUESTO DE SALUD TAMBO REAL;-8.964749488;-78.58549617;
PUESTO DE SALUD CHACHAPOYAS;-8.97323873;-78.49818145;
P.S. SANTA ROSA PAQUIRCA;-8.982319555;-78.51836282;
P.S. CHACHAPOYAS;-8.98668532;-78.49869847;
PUESTO DE SALUD CAMBIO PUENTE;-8.9965;-78.55332;
II.EE. CAMBIO PUENTE;-8.997338619;-78.55525847;
CENTRO DE SALUD SANTA;-9.002476555;-78.30263194;
CENTRO MEDICO DE AYUDA AL DIAGNOSTICO ROBLES E.I.R.L.;-9.0433874;-78.5919921;
PUESTO DE SALUD LA UNIÓN;-9.05013822;-78.5744781;
PUESTO DE SALUD SAN PEDRO;-9.05027294;-78.58886325;
II.EE. MARIANO MELGAR;-9.051588002;-78.58531009;
II.EE. 88072 PENSACOLA;-9.056082994;-78.57751023;
PUESTO DE SALUD LA ESPERANZA;-9.05675866;-78.58186197;
"""CENTRO DE SALUD MENTAL COMUNITARIO DOS DE JUNIO""";-9.057738;-78.587071;
PUESTO DE SALUD TUPAC AMARU;-9.05971975;-78.57915935;
II.EE REPUBLICA PERUANA;-9.060365644;-78.58535626;
HOSPITAL III CHIMBOTE;-9.0611812;-78.5884403;
SIDER PERU;-9.064894687;-78.5952571;
"POLICLÍNICO DE COMPLEJIDAD CRECIENTE ""VICTOR PANTA RODRIGUEZ""";-9.0670144;-78.5974318;
CENTRO DE SALUD PROGRESO;-9.06722886;-78.58748786;
MERCADO 2 DE MAYO;-9.068253472;-78.5712368;
PUESTO DE SALUD VICTOR  RAUL;-9.06854793;-78.59433687;
I.E. Santa Maria Reyna;-9.0693773;-78.58294254;
RIVERALAB;-9.0703;-78.6129;
PUESTO DE SALUD MAGDALENA NUEVA;-9.07171004;-78.58178337;
II.EE. 88001 EX PREVOCACIONAL 314;-9.072320395;-78.59516473;
CLINICA ROBLES S.A.C.;-9.07299;-78.592582;
II.EE GLORIOSA 329;-9.073259494;-78.59580614;
CLINICA SAN PEDRO;-9.07365333;-78.592675;
I.E. Eleazar Guzman Barron;-9.07395394;-78.57547666;
SALUD PRIMAVERA;-9.07431573;-78.58705171;
CLINICA BELEN S.A.C.;-9.0745106;-78.5951497;
PUESTO DE SALUD SANTA ANA COSTA;-9.07457414;-78.56927183;
POLICLINICO PNP CHIMBOTE;-9.0746192;-78.595333;
PLAZA DE ARMAS CHIMBOTE;-9.074758144;-78.59316146;
HOSPITAL LA CALETA;-9.07562297;-78.6017774;
INSTITUTO MEDICO ESPECIALIZADO UROGINEC EIRL;-9.0758998;-78.5989643;
CENTRO DE DIALISIS DEL SANTA - CEDISAN;-9.0842167;-78.5790775;
CENTRO DE SALUD FLORIDA;-9.08572925;-78.57843058;
CENTRO DE HEMODIALISIS CHIMBOTE S.A.C.;-9.087495;-78.57447;
CENTRO NEFROLOGICO CHIMBOTE S.A.C.;-9.087597;-78.574573;
CENTRO DE SALUD MIRAFLORES ALTO;-9.08843009;-78.57040973;
COLEGIO PARTICULAR SAN JOSE;-9.0902863;-78.5695776;
PUESTO DE SALUD SAN JUAN;-9.09278314;-78.56165175;
FE Y ALEGRIA Nº16;-9.0928377;-78.5618173;
COLEGIO ENRIQUE MEIGGS;-9.0931376;-78.5698753;
I.E. FE Y ALEGRIA;-9.096563431;-78.5617553;
"CENTRO DE AISLAMIENTO TEMPORAL ""MI ESTRELLA""";-9.099494;-78.564532;
Estadio Centenario;-9.09967302;-78.56082036;
"CENTRO DE AISLAMIENTO TEMPORAL ""SAN PIETRO""";-9.10011822;-78.56238772;
MERCADO LA PERLA;-9.101184191;-78.55678376;
MEGA PLAZA;-9.101664144;-78.55713271;
DEPARTAMENTO DE SANIDAD DE LA COMANDANCIA DE LA BASE NAVAL DE CHIMBOTE;-9.12043129;-78.55816959;
PS LAMPANIN;-8.93462;-78.144;
PUESTO DE SALUD LAMPANIN;-8.93579691;-78.14516733;
LOCAL COMUNAL DE COLCAP;-8.9788969;-78.0585963;
PS COLCAP;-8.9789094;-78.0581952;
PUESTO DE SALUD COLCAP;-8.97890945;-78.05819521;
IE 88050;-9.0140646;-78.1377804;
PUESTO DE SALUD JIMBE;-9.01526065;-78.13968884;
PS JIMBE;-9.0152838;-78.1398912;
CENTRO MEDICO COISHCO;-9.01984;-78.614525;
II.EE. 88044 COISHCO;-9.020799514;-78.61670939;
CENTRO DE SALUD COISHCO;-9.02166397;-78.6140252;
P.S. MACATE;-8.759744838;-78.05966767;
PUESTO DE SALUD MACATE;-8.75985743;-78.0598725;
PUESTO DE SALUD HUANROC;-8.76132536;-78.09455399;
PUESTO DE SALUD SANTA ROSA DE PAQUIRCA;-8.87063242;-78.15358285;
PUESTO DE SALUD SANTA ANA SIERRA;-8.88649428;-78.21585395;
P.S. SANTA ANA SIERRA;-8.886853131;-78.21468834;
PS CAPTUY;-9.09957;-78.18237;
PUESTO DE SALUD CAPTUY;-9.10062144;-78.1818235;
CS MORO;-9.138;-78.1846;
PS POCOS;-9.1382287;-78.1835179;
CENTRO DE SALUD MORO;-9.13980296;-78.18465623;
IE SANTO DOMINGO;-9.1404304;-78.1819441;
PUESTO DE SALUD POCOS;-9.14204143;-78.14376285;
CENTRO DE SALUD SAN JACINTO;-9.14530627;-78.27668369;
IE 89509 AMANDA MIASTA GUTIERREZ;-9.1472192;-78.2836165;
PS SAN JACINTO;-9.148289;-78.2809879;
CS NEPEÑA;-9.1719308;-78.3570114;
CENTRO DE SALUD NEPEÑA;-9.17195511;-78.35714242;
I.E. MARCOS EVARISTO VILLACRE;-9.175261986;-78.35750433;
PUESTO DE SALUD HUAMBACHO;-9.25819043;-78.43538633;
PS HUAMBACHO;-9.25888;-78.43532;
PS SAMANCO;-9.26079;-78.4996;
PUESTO DE SALUD SAMANCO;-9.26245805;-78.49625913;
IE RAMON CASTILLA;-9.2627314;-78.492987;
PS LOS CHIMUS;-9.31956;-78.47634;
PUESTO DE SALUD LOS CHIMUS;-9.31965602;-78.47588709;
PUESTO DE SALUD VINZOS;-8.80170247;-78.55158891;
PUESTO DE SALUD RINCONADA;-8.89325253;-78.56666266;
PUESTO DE SALUD ALTO PERU;-8.94966512;-78.57995874;
PUESTO DE SALUD TAMBO REAL;-8.96477294;-78.58541942;
CENTRO DE SALUD SANTA;-8.98607928;-78.6153025;
I.E. SANTIAGO ANTUNEZ DE MAYOLO;-8.987844688;-78.6132353;
PUESTO DE SALUD PUERTO SANTA;-8.99045478;-78.64751719;
SPORTMEDIC CLINICA DE FISIOTERAPIA & REHABILITACION S.A.C;-9.1052648;-78.445126;
CERTIFICADOS MEDICOS MI BREVETE EIRL;-9.1052648;-78.445126;
PUESTO DE SALUD SATELITE;-9.10852269;-78.53781565;
PS SATELITE;-9.10853;-78.5379191;
I.E.N. LUIS ALBERTO SÁNCHEZ;-9.1093479;-78.5328594;
I.E. Fe Y Alegria Nº 14;-9.11302933;-78.53644274;
PS 3 DE OCTUBRE;-9.1159847;-78.5397537;
PUESTO DE SALUD 3 DE OCTUBRE;-9.11610303;-78.53955184;
I.E. N°88389 Juan Valer Sandoval;-9.11647695;-78.50556971;
PS NICOLAS DE GARATEA;-9.1169648;-78.5050283;
PUESTO DE SALUD NICOLAS DE GARATEA;-9.11697211;-78.5049083;
PS VILLA MARIA;-9.118875;-78.5452933;
ELEAZAR GUZMAN BARRON;-9.118993;-78.520213;
PUESTO DE SALUD VILLA MARIA;-9.1189991;-78.54523354;
IE 88028 ALMIRANTE MIGUEL GRAU;-9.1191707;-78.5441375;
I.E. Villa Maria - Nuevo Chimbote;-9.1198977;-78.55030152;
CENTRO MEDICO RIVERALAB;-9.12;-78.52;
PLAZA MAYOR DE NUEVO CHIMBOTE;-9.1220885;-78.5311232;
CLINICA MEDICO OCUPACIONAL CARRION S.A.C.;-9.12254973;-78.52786414;
HOSPITAL I CONO SUR;-9.124726;-78.5233296;
COUNTRY CLUB  DE BUENOS AIRES;-9.1249271;-78.5324345;
IE REPUBLICA ARGENTINA;-9.1257998;-78.5269911;
Plaza De Estacionamiento Real Plaza;-9.12647146;-78.53531176;
I.E. Augusto Salazar Bondy;-9.12720487;-78.52916537;
CENTRO DE HEMODALISIS TUMBES S.A.C.;-9.129436;-78.52339;
CENTRO DEL RIÑON ALBERTO MAGNO SAC;-9.1295014;-78.52336741;
CLINICA SSOSMA SAC;-9.1309096;-78.5226312;
Complejo Polideportivo Casuarinas;-9.13154275;-78.5234325;
CS YUGOSLAVIA;-9.132181;-78.5196736;
CENTRO DE SALUD YUGOSLAVIA;-9.1323422;-78.51919552;
CENTRO MEDICO NUEVA SALUD;-9.13590254;-78.5227044;
MEDI CAR CENTER PERU S.A.C.;-9.136;-78.521;
MEDIC CENTER ANCASH S.A.C.;-9.1379346;-78.5194977;
IE 88388 SAN LUIS DE LA PAZ;-9.1380736;-78.5098206;
CENTRO DE SALUD MENTAL COMUNITARIO NUEVO PUERTO;-9.147672;-78.507196;
PUESTO SALUD SAURAPA;-8.544810353;-77.60894811;
HOSPITAL DE APOYO SIHUAS;-8.55279302;-77.63220171;
I.S.T. AGUSTIN HAYA DE LA TORRE;-8.558531479;-77.61292967;
PUESTO DE SALUD SAURAPA;-8.56225775;-77.60027068;
PUESTO DE SALUD ACOBAMBA;-8.32570899;-77.58084869;
PUESTO DE SALUD ULLOLLUCO;-8.45611209;-77.42603311;
PUESTO DE SALUD CASHAPAMPA;-8.56097167;-77.65258333;
PUESTO DE SALUD PASACANCHA;-8.59678034;-77.6555009;
PUESTO DE SALUD CHINGALPO;-8.33948661;-77.59607398;
PUESTO DE SALUD SAN MIGUEL;-8.36307918;-77.66187628;
PUESTO DE SALUD SANTA CLARA;-8.53203;-77.48433667;
CENTRO DE SALUD HUAYLLABAMBA;-8.53598877;-77.56566463;
PUESTO DE SALUD PIRPO;-8.57182667;-77.553595;
PUESTO DE SALUD JOCOSBAMBA;-8.39147279;-77.54041329;
CENTRO DE SALUD QUICHES;-8.39520558;-77.49216395;
PUESTO DE SALUD QUINGAO;-8.42956646;-77.68681709;
PUESTO DE SALUD RAGASH;-8.532645;-77.66522333;
PUESTO DE SALUD PARIASHPAMPA;-8.6170706;-77.62436404;
PUESTO DE SALUD SAN JUAN CHULLIN;-8.64653238;-77.58125778;
PUESTO DE SALUD ANDAYMAYO;-8.66170667;-77.63030333;
PUESTO DE SALUD CHINCHOBAMBA;-8.6731269;-77.57320127;
PUESTO DE SALUD SICSIBAMBA;-8.62101869;-77.57891619;
PUESTO DE SALUD UMBE;-8.62348453;-77.53485867;
PUESTO DE SALUD RAYAN;-9.07989488;-77.72999682;
I.E. SEÑOR DE MAYO 86649 - RAYAN - RANRAHIRCA;-9.080223;-77.7265085;
I.E.86647 CHILCA - RANRAHIRCA;-9.098181826;-77.72978542;
PUESTO DE SALUD CHILCA;-9.09908665;-77.73116059;
PUESTO DE SALUD HUARCA;-9.10127827;-77.71244557;
I.E. SAN PEDRO - HUARCA - RANRAHIRCA;-9.104140819;-77.70921825;
PUESTO DE SALUD HUASHAO;-9.12940456;-77.70046748;
I.E. CESAR VALLEJO - HUASHAO - RANRAHIRCA;-9.1295133;-77.7001353;
HOSPITAL DE APOYO YUNGAY;-9.13836806;-77.74555107;
C.E.I. Nº 222  NIÑO JESUS DE PRAGA YUNGAY;-9.1388233;-77.7440992;
POSTA MEDICA YUNGAY;-9.1392751;-77.7456709;
FRONTIS DE LA MUNICIPALIDAD PROVINCIAL DE YUNGAY;-9.140151353;-77.74448803;
PARADERO TRANSITORIO YUNGAY;-9.140163932;-77.74705624;
COLISEO CERRADO YUNGAY;-9.140405576;-77.74427881;
CENTRO RECREACIONAL YUNGAY;-9.140832522;-77.74433577;
LOZA DEPORTIVA DEL C.P MUSHO;-9.169707841;-77.67255223;
LOZA DEPORTIVA DEL C.P MUSHO;-9.169771391;-77.6725871;
PUESTO DE SALUD MUSHO;-9.170251;-77.67343749;
MERCADO CENTRAL DE TUMPA;-9.1723674;-77.6636344;
MERCADO CENTRAL DE TUMPA;-9.1723674;-77.6636344;
MERCADO CENTRAL DE TUMPA;-9.1723674;-77.6636344;
CENTRO DE SALUD TUMPA;-9.17339646;-77.66516121;
I.E.SANTO TORIBIO DE CASCAPARA;-9.2262493;-77.7170314;
PUESTO DE SALUD CASCAPARA;-9.22825055;-77.71768732;
I.E SAN JUAN BAUTISTA LA SALLE-TINGUA;-9.180080588;-77.60261532;
CAMPO GRAS SINTETICO DE YANAMITO;-9.1838814;-77.6629186;
CENTRO DE SALUD MANCOS;-9.18850706;-77.70849951;
CENTRO COMUNAL CAMPESINO HUASCARAN- HUASHCAO;-9.1888674;-77.650033;
PUESTO DE SALUD HUASHCAO;-9.18980883;-77.64112836;
AUDITORIO LIBERTAD;-9.190287921;-77.71193948;
I.E N°86634 REPUBLICA DE KUWAIT UTUPAMPA;-9.1942181;-77.6575497;
I.E N°86634 REPUBLICA DE KUWAIT UTUPAMPA;-9.1942181;-77.6575497;
PUESTO DE SALUD UTUPAMPA;-9.19429592;-77.6585281;
I.E VIRGEN DE ROSARIO HUAYPAN;-9.197841645;-77.61944105;
PUESTO DE SALUD HUAYPAN;-9.21096833;-77.61808167;
PUESTO DE SALUD TINGUA;-9.22435296;-77.68607632;
I.E. JUAN BAUTISTA LA SALLE- TINGUA;-9.2247568;-77.6865383;
PUESTO DE SALUD MATACOTO;-9.17542911;-77.74648976;
I.E. SAN MARTIN DE PORRES - MATACOTO - RANRAHIRCA;-9.1772269;-77.7459234;
I.E. 86684 PRIMARIA - PUTACA - RANRAHIRCA;-9.21369;-77.7480792;
PORTAL DE LA MUNICIPALIDAD DEL C. P. PUNAP - RANRAHIRCA;-9.291440982;-77.88519809;
PUESTO DE SALUD PUNAP;-9.293785;-77.88677;
PUESTO DE SALUD PAMPACANCHA;-9.3021381;-77.96047574;
PS PAMPACANCHA;-9.3021381;-77.9604757;
PUESTO DE SALUD HUACHO;-9.30474948;-77.9457724;
PS HUACHO;-9.3047495;-77.9457724;
CENTRO DE SALUD QUILLO;-9.32791209;-78.0410111;
CS QUILLO;-9.3279121;-78.0410111;
86645 RICARDO PALMA;-9.3279515;-78.0410405;
CANCHIRAO Y CORRALHUAIN;-9.3286456;-78.0418968;
TUMIPAMPA, PAÑOPAMPA, PUCAPATZA Y ESPINOPAMPA;-9.4234527;-78.0083852;
PUESTO DE SALUD ARHUAY;-9.14710903;-77.6956808;
I.E. N° 86650 - ENCAYOC - ARHUAY - RANRAHIRCA;-9.1499664;-77.6954878;
PORTAL DE LA MUNICIPALIDAD DE RANRAHIRCA;-9.1732118;-77.7225145;
I.E. SEÑOR DE LOS MILAGROS - PRIMARIA;-9.1734646;-77.7224354;
PUESTO DE SALUD RANRAHIRCA;-9.17785488;-77.72046983;
MERCADO DE SHUPLUY;-9.2163383;-77.6935159;
MERCADO DE SHUPLUY;-9.2163383;-77.6935159;
PUESTO DE SALUD SHUPLUY;-9.21653333;-77.69346;
MERCADO DE SHUPLUY;-9.2170723;-77.693563;
CENTRO POBLADO DE PONCOS;-9.2600767;-77.7409083;
PUESTO DE SALUD PONCOS;-9.260765;-77.74094;
PUESTO DE SALUD PUTACA;-9.38440833;-77.88302667;
LOCAL COMUNAL DE TAMBRA - RANRAHIRCA;-9.4001974;-77.8441986;
PUESTO DE SALUD TAMBRA;-9.40027333;-77.84439167;
PUESTO DE SALUD LLANLLA;-8.99696333;-77.42946667;
I.E.P N°86746 SAN ISIDRO DE LLANLLA;-8.998017386;-77.42939674;
PUESTO DE SALUD PACARISCA;-9.00723405;-77.41740237;
I.E.P DOS DE MAYO;-9.010320066;-77.41738045;
PUESTO DE SALUD YERBA BUENA;-9.01536;-77.50523667;
I.E.P N°86876 DE YERBABUENA;-9.015962628;-77.50302338;
CENTRO DE SALUD YANAMA;-9.016865;-77.46851333;
PUESTO DE SALUD ALPABAMBA;-9.02068333;-77.37443;
I.E.P N°86664 DOMINGO SABIO DE ALPABAMBA;-9.021086059;-77.37289862;
I.E.P SAN JUAN BOSCO;-9.02335399;-77.47148918;
I.E.P N°86637 INMACULADA;-9.05662372;-77.38738255;
PUESTO DE SALUD CUNYA;-9.05706167;-77.386185;
PATIBAMBA BAJA;-13.51901896;-73.72386343;
KARCATERA;-13.61090637;-72.95410785;
HUAYLLABAMBA;-13.61922015;-72.91554856;
MARCAHUASI;-13.62778285;-72.85941691;
I.E Divino Maestro;-13.62895273;-72.88429711;
PUEBLO JOVEN CENTENARIO;-13.62899;-72.88469667;
POLICLINICO MI SALUD;-13.6310286;-72.8772101;
PNP POLICLINICO SANIDAD;-13.63107169;-72.88813747;
CENTRO MEDICO DE ESPECIALIDADES SAN BORJA EIRL;-13.6312156;-72.8772316;
I.E. Miguel Grau;-13.63211302;-72.88204586;
SOL SALUD APURIMAC;-13.63220969;-72.87434984;
LAB. VAROS E.I.R.L.;-13.6326018;-72.87598974;
RSAb - I. E.  SECUNDARIA NUESTRA SEÑORA DE LAS MERCEDES;-13.63262628;-72.88962932;
CLINICA SEJURO EIRL;-13.63291881;-72.87512679;
VILLAGLORIA;-13.632941;-72.869839;
CONSULTORIO DENTAL SEÑOR DE HUANCA;-13.63336704;-72.88764287;
METROPOLITANO;-13.6335283;-72.87692091;
Estadio Condebamba C.S. Villagloria;-13.63363058;-72.8718556;
"POLICLÍNICO DE COMPLEJIDAD CRECIENTE ""LAS AMÉRICAS""";-13.6345582;-72.8890247;
"CENTRO DE SALUD MENTAL COMUNITARIO ""QHALI KAY""";-13.63485776;-72.8796795;
BELLAVISTA;-13.63543084;-72.89321087;
SERVICIOS CARRION MEDICOS  Y ODONTOLOGOS SCRL;-13.6357256;-72.8806057;
Loza Deportiva Bellavista C.S Bellavista;-13.63583323;-72.89444343;
"CONSULTORIO DENTAL ESPECIALIZADO ""NIÑO REYES""";-13.6362336;-72.8828095;
RSAb - I. E. AURORA INES TEJADA - ABANCAY;-13.63647222;-72.87718575;
CENTRO DIAGNOSTICO LOS ANGELES;-13.6369239;-72.8803745;
CLINICA TELLO E.I.R.L.;-13.6369239;-72.8803745;
POLICLINICO  GALENU´S MEDICAL GROUP;-13.6372426;-72.88213315;
CLINICA SANTA TERESA;-13.6372697;-72.8755924;
RSAb - loza deportiva las Malvinas-Abancay;-13.63733934;-72.88998828;
RSAb - I. E. Pueblo Libre - Abancay;-13.63740003;-72.88712023;
I.E. NUESTRA SEÑORA DEL ROSARIO- Southern Peru;-13.63759292;-72.88447557;
Loza Deportiva Los Chankas C.S. Metropolitano;-13.63795998;-72.87449515;
CENTRO MEDICO PSICOSOMATICO SEÑOR DE LOS MILAGROS;-13.63809542;-72.88655121;
SAN MARTIN;-13.63810714;-72.89122328;
"CENTRO MEDICO SERVI APURIMAC ""C&M"" E.I.R.L";-13.63908878;-72.88021353;
CENTRO OFTALMOLOGICO MONSEÑOR ENRIQUE PELACH -OBISPADO DE ABANCAY;-13.6391954;-72.8929;
PERU SONRIE;-13.6391954;-72.8929;
CONSULTORIO MEDICO ESPECIALIZADO LA TORRE DE LA SALUD;-13.6391954;-72.8929;
POLICLINICO AMERICANA MEDIC ABANCAY S.R.L.;-13.6391954;-72.8929;
CENTRO DE HEMODIALISIS ABANCAY;-13.6391954;-72.8929;
LABORATORIO CLÍNICO ESPECIALIZADO APURIMAC;-13.6391954;-72.8929;
AYMAS;-13.640022;-72.865096;
HOSPITAL REGIONAL GUILLERMO DIAZ DE LA VEGA;-13.64034611;-72.8819806;
SEGURO SOCIAL DE SALUD - ESSALUD;-13.64184167;-72.89601667;
Loza Deportiva Patibamba P.S. Patibamba;-13.64399651;-72.89240501;
RSAb - P. S. Tablada Alta;-13.6452259;-72.9034742;
TABLADA ALTA;-13.64550167;-72.90004;
ATUMPATA;-13.65032955;-72.85170995;
QUISAPATA;-13.6801621;-72.86911017;
RSAb - LOZA DEPORTIVA (C. S. CASINCHIHUA);-13.87503645;-73.02747037;
CASINCHIHUA;-13.87505833;-73.02684833;
CHACOCHE;-13.94178231;-72.99025474;
ANCHICHA;-13.98578016;-73.00727963;
RSAb - I. E. VARIANTE AGROPECURIO -   P.S. OCOBAMBA;-13.87168877;-72.95675486;
HUIRAHUACHO;-13.87724333;-72.97597833;
OCOBAMBA;-13.87812833;-72.93262333;
RSAb - I. E. PRIMARIA Nº 54016 CIRCA (P. S. HUIRAHUACHO);-13.87821148;-72.87566225;
CIRCA;-13.87878667;-72.87547167;
TAMBURQUI;-13.97211333;-72.88623167;
RSAb - CENTRO POBLADO TAMBO QUESARI (P. S. TAMBURQUI);-13.97211677;-72.88623566;
CENTRO DE ATENCION PRIMARIA I CURAHUASI;-13.53678672;-72.69819253;
CURAHUASI;-13.53678754;-72.69805466;
RSAb - C. S. Curahuasi;-13.53684411;-72.69811933;
"CENTRO DE SALUD MENTAL COMUNITARIO ""ALLIN KAWSAY""";-13.53785701;-72.69575002;
OCCORURO;-13.53948249;-72.75158024;
SAN LUIS;-13.54266017;-72.78599921;
HOSPITAL  DIOSPI SUYANA;-13.5430188;-72.7079968;
EL CARMEN;-13.55081693;-72.62164096;
CONCACHA;-13.55207964;-72.79594483;
PISONAYPATA;-13.55644025;-72.74209265;
CCOCHUA;-13.56651874;-72.70061502;
TOTORAY;-13.56902518;-72.77864043;
BACAS;-13.57176005;-72.76093826;
ANTILLA;-13.64544179;-72.57296134;
CHUNA MARJUNI;-13.6728953;-72.657245;
PROGRESO LARATA;-13.68017757;-72.46319465;
CCOLLPA;-13.70139156;-72.49573398;
KIUÑALLA;-13.437635;-72.89593333;
KARQUEQUI;-13.457305;-73.045245;
TACMARA;-13.47818833;-73.05578167;
HUANIPACA;-13.49116167;-72.93452667;
HUANCHULLA;-13.49409;-73.025325;
CCOYA;-13.53841833;-72.99956667;
CRUZ PATA (LAMBRAMA);-13.766155;-72.85198333;
RSAb - P. S. Suncho;-13.79577939;-72.85028675;
SUNCHO;-13.79578667;-72.850425;
CAYPE;-13.79670333;-72.83129;
SIUSAY;-13.82789667;-72.82646333;
MARJUNI;-13.84062833;-72.734945;
ATANCAMA;-13.86872833;-72.78476;
RSAb - C. S. Lambrama;-13.87116376;-72.76894574;
LAMBRAMA;-13.87116833;-72.76872333;
AUQUIBAMBA;-13.67949333;-72.95324;
RSAb - LOZA DEPORTIVA AUQUIBAMBA;-13.679593;-72.95318839;
ALLPACHACA;-13.70842833;-72.96215;
LUCUCHANGA;-13.75059724;-72.97133649;
RSAb - I. E. LUCUCHANGA;-13.75086441;-72.97068764;
PISCAYA;-13.75662833;-73.000305;
RSAb - Campo Ferial de Accopampa (P. S. Accopampa);-13.78125853;-72.94086528;
RSAb - I. E. P. Nº 54035 DIVINO NIÑO JESUS COTARMA;-13.78369348;-72.98206794;
COTARMA;-13.78415833;-72.98191167;
ACCOPAMPA;-13.78466833;-72.94524333;
CHALHUANI;-13.82357167;-73.042495;
RSAb - PLAZA DE ARMAS CHALHUANI;-13.82388558;-73.04259452;
OCRABAMBA;-13.85481985;-73.08569888;
RSAb - LOZA DEPORTIVA PICHIRHUA;-13.86017749;-73.07303077;
PICHIRHUA;-13.86026833;-73.07302167;
RSAb - C. S. Cachora;-13.50999377;-72.81275199;
CACHORA;-13.51013884;-72.81261787;
RSAb - Loza Municipal de Cachora  C.S. Cachora;-13.51230797;-72.81011421;
KERAPATA;-13.59940312;-72.8606353;
SAN ANTONIO;-13.60566949;-72.85689528;
Ee.Ss De Salud P.S San Antonio;-13.60649181;-72.85833046;
RSAb - P. S. San Antonio;-13.60795814;-72.85844021;
Loza Municipal Tamburco C.S Tamburco;-13.62139142;-72.87352717;
TAMBURCO;-13.62577844;-72.87335324;
CENTRO MEDICO ESPECIALIZADO DEL NIÑO - ANDAHUAYLAS;-13.6542985;-73.38704444;
SONRIE;-13.65510984;-73.38603269;
CONSULTORIO MEDICO ESPECIALIZADO;-13.65572212;-73.38381703;
CENTRO OFTAMOLOGICO VISION ANDAHUAYLAS EIRL;-13.6559245;-73.3880872;
CLINICA DE ESPECIALIDADES VIRGEN DE COCHARCAS;-13.6559378;-73.3891535;
CONSULTORIO MÉDICO SAN MARTÍN DE PORRES;-13.65595401;-73.38198904;
POLICLINICO MEDICOS ESPECIALISTAS DEL VALLE;-13.65609304;-73.38198406;
POSTA MEDICA POLICIAL DE ANDAHUAYLAS;-13.65610714;-73.39082042;
"Puesto de Salud del Ejercito ""Los Chankas""";-13.65622467;-73.37362595;
ANDAHUAYLAS;-13.65632718;-73.38203656;
I.E. Divino Maestro 55005;-13.656361;-73.385478;
MiDent;-13.65645924;-73.38268108;
Estadio Los Chankas;-13.65654;-73.38123;
CENTRO ODONTOLOGICO ESPECIALIZADO ORTHODENTIS;-13.6565457;-73.38680082;
LABOMAD CENTER;-13.6566161;-73.3818197;
POLICLÍNICO MAS VIDA;-13.65662527;-73.3811287;
I.E. Juan Espinoza Medrano;-13.656645;-73.379243;
I.E Belen De Osma Y Pardo;-13.6567;-73.3766;
POLICLINICO SAN LUIS MEDIC;-13.6571689;-73.3830073;
LIRA LAB;-13.65719814;-73.38216645;
HOSPITAL I SANTA MARGARITA;-13.65753852;-73.41220289;
HOSPITAL SUBREGIONAL DE ANDAHUAYLAS;-13.6575938;-73.3820529;
HOSPITAL SUBREGIONAL DE ANDAHUAYLAS;-13.65777423;-73.38199121;
HOSPITAL SUBREGIONAL DE ANDAHUAYLAS;-13.6579063;-73.381736;
I.E. Familia Sagrada 55006;-13.65794;-73.386057;
"CONSULTORIO DENTAL ""NUEVA IMAGEN""";-13.65814858;-73.38738565;
MiDent;-13.65816421;-73.38757608;
"POLICLINICO ""SEÑOR DE HUANCA"" ANDAHUAYLAS";-13.65829975;-73.39204196;
CLINICA PERUANA DE LOS ANDES;-13.6585107;-73.3907989;
ESTABLECIMIENTO PENITENCIARIO ANDAHUAYLAS;-13.65878534;-73.39564721;
CONSULTORIO DENTAL JR;-13.6588521;-73.38941774;
"CONSULTORIO MEDICO  ""VENERO""";-13.66001952;-73.39130709;
PUESTO DE SALUD BING 241;-13.66097234;-73.39723862;
C.S. ANDAHUAYLAS;-13.6614636;-73.3925031;
dental silvera;-13.6616515;-73.3767641;
Consultorio Dental ANDIA;-13.6616515;-73.3767641;
POLICLÍNICO SANTA ROSA;-13.6616515;-73.3767641;
I.E Manuel Vivanco;-13.662029;-73.397529;
CHOCCEPUQUIO;-13.67040863;-73.40773527;
HUINCHOS;-13.71201554;-73.34912504;
SUCARAYLLA;-13.73379469;-73.39311621;
SOCCÑACANCHA;-13.74120566;-73.41734144;
CCEÑUARAN;-13.8045671;-73.39167241;
HUANCAS;-13.47578475;-73.37282392;
HUAMPICA;-13.50710392;-73.43871775;
CHANTA UMACA;-13.50984233;-73.3324835;
ILLAHUASI;-13.52493691;-73.34437105;
I.E. SAN FRANCISCO DE ASIS;-13.5262;-73.3689;
C.S. ANDARAPA;-13.5282057;-73.3669337;
ANDARAPA;-13.52821493;-73.36690429;
PUYHUALLA;-13.55063826;-73.34457222;
I.E.P Nro 54122 LOS CHANKAS;-13.5556279;-73.3430363;
SAN JUAN DE MIRAFLORES;-13.56474466;-73.36649927;
CHIARA;-13.86817796;-73.6624151;
I.E. ENRIQUE MARTINELLY TIZON;-13.8705;-73.6651;
NUEVA HUILLCAYHUA;-13.89098496;-73.58565086;
SANTIAGO DE YAURECC;-13.90391539;-73.65394953;
LLACTABAMBA;-13.63057333;-72.99925333;
RSAb - ESTADIO MASINGARA - HUANCARAMA;-13.64180843;-73.09085435;
HUANCARAMA;-13.64197833;-73.09047;
RSAb - C. S. Huancarama;-13.64199848;-73.09039982;
MATECCLLA;-13.65129667;-73.05386333;
PAMPAHURA;-13.65496833;-73.04423;
KARHUAKAHUA;-13.66682167;-72.999295;
SAN JOSE DE ARCAHUA;-13.66839167;-73.05445833;
PICHIUPATA;-13.67601112;-73.07582529;
SAYHUA;-13.681645;-73.06207833;
LOS ANGELES;-13.68338167;-73.03217167;
SOTAPA;-13.68731589;-73.02353713;
MOLLEPATA;-13.73339846;-73.55254656;
CCANCCAYLLO;-13.74900228;-73.51010853;
I.E. DOS DE MAYO;-13.7576;-73.5268;
C.S. HUANCARAY;-13.7590511;-73.52718;
HUANCARAY;-13.75907203;-73.52718272;
OCCOCHO;-13.78318155;-73.54048482;
CHECCCHEPAMPA;-13.97695703;-73.53162056;
HUAYANA;-14.05120994;-73.60907329;
PUESTO DE SALUD COLPA;-13.56333543;-73.15904514;
I.E. DIVINO MAESTRO;-13.60717;-73.16052;
MATAPUQUIO;-13.60739578;-73.16117905;
Puesto de Salud Quillabamba;-13.62946998;-73.19946766;
PUESTO DE SALUD SOTCCOMAYO;-13.63089114;-73.1709985;
EL TAMBO QUILLABAMBA;-13.6329103;-73.2003362;
TINTAY;-13.67725782;-73.16275542;
I.E. JOSE MARIA ARGUEDAS;-13.6893;-73.1203;
C.S. KISHUARA;-13.6908506;-73.1201238;
KISHUARA;-13.69086623;-73.12014529;
Puesto de Salud Cavira;-13.69629327;-73.15140993;
TACMARA;-13.487315;-73.1977;
HUASCATAY;-13.50218167;-73.18518;
CCERABAMBA;-13.56419757;-73.11232124;
HUAMBO;-13.58118333;-73.09032;
HUIRONAY;-13.58774333;-73.11921167;
ANDINA;-13.61209994;-73.10661614;
PACOBAMBA;-13.61559833;-73.08578333;
RSAb - COLISEO RICARDO PALMA (C. S. Pacobamba);-13.6162211;-73.08605162;
CCALLASPUQUIO;-13.62286667;-73.128155;
PUCULLOCCOCHA;-13.5804899;-73.3673756;
I.E. MIGUEL GRAU SEMINARIO;-13.587641;-73.340936;
COTAHUACHO;-13.59080393;-73.26589767;
CHURRUBAMBA;-13.60821158;-73.3676938;
C.S. PACUCHA;-13.6090825;-73.3409056;
PACUCHA;-13.60911902;-73.34093778;
I.E. JOSE OLAYA BALANDRA;-13.609357;-73.3439628;
LAGUNA;-13.61448106;-73.29426101;
I.E. PERLAS DEL SABER;-13.621452;-73.253156;
ARGAMA;-13.62810465;-73.25455792;
C.S. PAMPACHIRI;-14.1837748;-73.5469899;
PAMPACHIRI;-14.18381124;-73.54697922;
LLANCAMA;-14.29673995;-73.46636049;
CHILLIHUA;-14.39502452;-73.48494706;
POMACOCHA;-14.08373995;-73.59107383;
SAN ANTONIO DE CACHI;-13.77298308;-73.60260374;
I.E. JUAN PABLO VIZCARDO Y GUZMAN;-13.773;-73.6023;
SAN JUAN DE CULA;-13.79287351;-73.66629916;
CHULLIZANA;-13.81376035;-73.62586732;
TANQUIYAURECC;-13.84589356;-73.68386826;
I.E. AGROPECUARIO N 08 - SAN JERONIMO;-13.6505318;-73.360878;
I.E. Cristo Rey;-13.650542;-73.360781;
I.E Juan Pablo Ii;-13.650792;-73.367734;
C.S. SAN JERONIMO;-13.6522384;-73.3625867;
SAN JERONIMO;-13.6523968;-73.36305734;
POLTOCCSA;-13.65255;-73.33412;
CHAMPACCOCHA;-13.65647;-73.30245;
OLLABAMBA;-13.656893;-73.317661;
CHULLCUISA;-13.66897073;-73.26207036;
LLIUPAPUQUIO;-13.67048;-73.30516;
ANCATIRA;-13.67099;-73.28752;
CUPISA;-13.68285061;-73.28581973;
CHOCCECANCHA;-13.68409;-73.26283;
SANTIAGO DE YANACULLO;-13.9387676;-73.59661949;
I.E. FRANCISCO BOLOGNESI CERVANTES;-13.958912;-73.60981;
CHACCRAMPA;-13.96243527;-73.60801104;
SAN JUAN PAMPA;-13.96724899;-73.58984368;
IGLESIA PATA;-13.99872027;-73.60186205;
PUESTO DE SALUD TARAMBA;-13.6478326;-73.49924985;
PUESTO DE SALUD MOYABAMBA BAJA;-13.65101896;-73.51881094;
NUEVA ESPERANZA;-13.65221663;-73.53023975;
I.E. 54674 NUESTRA SEÑORA DE GUADALUPE;-13.654288;-73.531654;
C.S. CHICMO;-13.6572661;-73.4941017;
CHICMO;-13.65727131;-73.49410174;
I.E. GUILLERMO PINTO ISMODES;-13.6576;-73.4935;
REBELDE HUAYRANA;-13.69719404;-73.60331921;
PUESTO DE SALUD CCANTUPATA;-13.69874151;-73.57595501;
I.E. TRILCE;-13.6996;-73.5845;
CASCABAMBA;-13.70142627;-73.58925131;
LAMAY;-13.71097961;-73.58070795;
UCHUHUANCARAY;-13.60284223;-73.44578365;
MULACANCHA;-13.63735752;-73.47483864;
LLANTUYHUANCA;-13.64191307;-73.41736704;
ORTHOESTETIC;-13.65181601;-73.42889455;
"CENTRO DE SALUD MENTAL COMUNITARIO  ""PRADERA DE LOS CELAJES""";-13.65334578;-73.43093966;
I.E. Pia;-13.655862;-73.421268;
CENTRO MMEDICO TALAVERA DE LA REYNA;-13.6574845;-73.4386466;
I.E. Gregorio Martinelli;-13.658816;-73.43082;
TALAVERA;-13.65920002;-73.42997622;
C.S. TALAVERA;-13.6593447;-73.4295994;
CCACCACHA;-13.67927749;-73.45577002;
OSCCOLLOPAMPA;-13.67954541;-73.44644551;
LUIS PATA;-13.70490807;-73.44412587;
PAMPAMARCA;-13.7060298;-73.46068803;
CCOCHAPUCRO;-13.98170956;-73.51624821;
VILLA SANTA ROSA;-14.02993002;-73.46598701;
UMAMARCA;-14.0511904;-73.56625732;
TAYPICHA;-13.76433937;-73.44325944;
PALLACCOCHA;-13.76804916;-73.49949846;
YANACCMA;-13.77008883;-73.47276047;
SOCCOSPATA;-13.779937;-73.459413;
TORACCA;-13.78304132;-73.51392449;
TURPO;-13.7852198;-73.47484904;
C.S TURPO;-13.78527272;-73.47481827;
BELEN DE ANTA;-13.79045767;-73.49359343;
SAN JUAN DE OCCOLLO;-13.79256428;-73.40912773;
KAQUIABAMBA;-13.53297229;-73.28787696;
I.E. JOSE MARIA ARGUEDAS ALTAMIRANO;-13.5344;-73.2879;
PULLURI;-13.54762975;-73.28528047;
HUANCABAMBA;-13.73505684;-73.34873166;
C.S. HUANCABAMBA;-13.7350578;-73.3487308;
SACCLAYA;-13.76751773;-73.3697901;
MOLLOCCO;-14.3386959;-72.8936384;
CENTRO DE SALUD ANTABAMBA;-14.3647468;-72.878583;
CENTRO DE SALUD ANTABAMBA - 2552;-14.3647468;-72.878583;
ANTABAMBA;-14.36543154;-72.87842417;
CENTRO DE ATENCION PRIMARIA I ANTABAMBA;-14.36546615;-72.87841024;
CHUÑOHUACHO;-14.40779139;-72.8192698;
